ROWNUM;Name;AdmArea;District;Location;Longitude_WGS84;Latitude_WGS84;Material;global_id;
1;"Искусственная дорожная неровность по адресу 8-я Северная линия, дом 15";"Северо-Восточный административный округ";"район Северный";"8-я Северная линия, дом 15";"37.5477599727986";"55.9365301439515";"пластик";"1711194";
2;"Искусственная дорожная неровность по адресу Волжский бульвар, дом 12";"Юго-Восточный административный округ";"район Кузьминки";"Волжский бульвар, дом 12";"37.7437355593247";"55.7138323684295";"пластик";"1711191";
3;"Искусственная дорожная неровность по адресу улица Коминтерна, дом 46";"Северо-Восточный административный округ";"Бабушкинский район";"улица Коминтерна, дом 46";"37.6904440974457";"55.8712946238895";"пластик";"1711192";
4;"Искусственная дорожная неровность по адресу 1-я Напрудная улица, дом 15";"Северо-Восточный административный округ";"Лосиноостровский район";"1-я Напрудная улица, дом 15";"37.6926884375718";"55.8799085288861";"пластик";"1711193";
5;"Искусственная дорожная неровность по адресу Никольский проезд, дом 5";"Зеленоградский административный округ";"район Савёлки";"Никольский проезд, дом 5";"37.2471886221612";"55.9922182761514";"пластик";"1711196";
6;"Искусственная дорожная неровность по адресу Типографская улица, дом 5А";"Юго-Западный административный округ";"район Южное Бутово";"Типографская улица, дом 5А";"37.5887179206612";"55.5086920769319";"пластик";"1711198";
7;"Искусственная дорожная неровность 1 по адресу Часовая улица, дом 19А";"Северный административный округ";"район Аэропорт";"Часовая улица, дом 19А";"37.5248220498724";"55.8098996444433";"пластик";"1711197";
8;"Искусственная дорожная неровность по адресу 1-я Северная линия, дом 12";"Северо-Восточный административный округ";"район Северный";"1-я Северная линия, дом 12";"37.554870174205";"55.9437201705896";"пластик";"1711195";
9;"Искусственная дорожная неровность по адресу Джанкойская улица, дом 2, корпус 1";"Юго-Западный административный округ";"район Южное Бутово";"Джанкойская улица, дом 2, корпус 1";"37.5754113470374";"55.540435478794";"асфальт";"1711200";
10;"Искусственная дорожная неровность по адресу 1-я Мелитопольская улица, дом 8";"Юго-Западный административный округ";"район Южное Бутово";"1-я Мелитопольская улица, дом 8";"37.5785171769109";"55.5401800953823";"асфальт";"1711199";
11;"Искусственная дорожная неровность по адресу улица Академика Глушко, дом 12";"Юго-Западный административный округ";"район Северное Бутово";"улица Академика Глушко, дом 12";"37.565098924731";"55.5650914260107";"пластик";"1711203";
12;"Искусственная дорожная неровность по адресу Михневская улица, дом 17";"Южный административный округ";"район Бирюлёво Восточное";"Михневская улица, дом 17";"37.6638214828534";"55.5793989105726";"пластик";"1711208";
13;"Искусственная дорожная неровность по адресу Старобитцевская улица, дом 17, корпус 1";"Юго-Западный административный округ";"район Северное Бутово";"Старобитцевская улица, дом 17, корпус 1";"37.5828673872518";"55.5767387878836";"пластик";"1711206";
14;"Искусственная дорожная неровность по адресу Варшавское шоссе, дом 143, корпус 6";"Южный административный округ";"район Чертаново Южное";"Варшавское шоссе, дом 143, корпус 6";"37.5985340013153";"55.5807303733056";"пластик";"1711210";
15;"Искусственная дорожная неровность по адресу Куликовская улица, дом 1Б";"Юго-Западный административный округ";"район Северное Бутово";"Куликовская улица, дом 1Б";"37.5643970251854";"55.5718721157284";"пластик";"1711204";
16;"Искусственная дорожная неровность по адресу Большая Бутовская улица, дом 9";"Юго-Западный административный округ";"район Южное Бутово";"Большая Бутовская улица, дом 9";"37.5808374561195";"55.5444579146619";"пластик";"1711201";
17;"Искусственная дорожная неровность по адресу улица Адмирала Лазарева, дом 13";"Юго-Западный административный округ";"район Южное Бутово";"улица Адмирала Лазарева, дом 13";"37.538047673611";"55.5457419051294";"пластик";"1711202";
18;"Искусственная дорожная неровность по адресу Булатниковский проезд, дом 16";"Южный административный округ";"район Бирюлёво Западное";"Булатниковский проезд, дом 16";"37.6598293499679";"55.5778679694693";"пластик";"1711207";
19;"Искусственная дорожная неровность по адресу Ратная улица, дом 8, корпус 3";"Юго-Западный административный округ";"район Северное Бутово";"Ратная улица, дом 8, корпус 3";"37.5802199236504";"55.5733580730463";"пластик";"1711205";
20;"Искусственная дорожная неровность по адресу Булатниковская улица, дом 7";"Южный административный округ";"район Бирюлёво Западное";"Булатниковская улица, дом 7";"37.6516682256803";"55.5800250963551";"пластик";"1711209";
21;"Искусственная дорожная неровность по адресу Весёлая улица, дом 12";"Южный административный округ";"район Царицыно";"Весёлая улица, дом 12";"37.6630030754088";"55.6239969155094";"пластик";"1711212";
22;"Искусственная дорожная неровность по адресу Днепропетровская улица, дом 13";"Южный административный округ";"район Чертаново Центральное";"Днепропетровская улица, дом 13";"37.5920348438466";"55.6240139906634";"пластик";"1711213";
23;"Искусственная дорожная неровность по адресу Булатниковский проезд, дом 14, корпус 3";"Южный административный округ";"район Бирюлёво Западное";"Булатниковский проезд, дом 14, корпус 3";"37.6588288872528";"55.5828307491879";"пластик";"1711217";
24;"Искусственная дорожная неровность по адресу улица Академика Капицы, дом 11";"Юго-Западный административный округ";"район Ясенево";"улица Академика Капицы, дом 11";"37.5243179521659";"55.6253841489984";"пластик";"1711215";
25;"Искусственная дорожная неровность по адресу Медынская улица, дом 12, корпус 1";"Южный административный округ";"район Бирюлёво Западное";"Медынская улица, дом 12, корпус 1";"37.6467673274089";"55.5845699135767";"пластик";"1711218";
26;"Искусственная дорожная неровность по адресу Днепропетровская улица, дом 15";"Южный административный округ";"район Чертаново Центральное";"Днепропетровская улица, дом 15";"37.5910156054438";"55.6241148193848";"пластик";"1711214";
27;"Искусственная дорожная неровность по адресу улица Мусы Джалиля, дом 16";"Южный административный округ";"район Зябликово";"улица Мусы Джалиля, дом 16";"37.7426229401498";"55.6239924596868";"пластик";"1711211";
28;"Искусственная дорожная неровность по адресу Лебедянская улица, дом 14, корпус 1";"Южный административный округ";"район Бирюлёво Восточное";"Лебедянская улица, дом 14, корпус 1";"37.6742499109008";"55.5865790305798";"пластик";"1711220";
29;"Искусственная дорожная неровность по адресу Бирюлёвская улица, дом 52, корпус 1";"Южный административный округ";"район Бирюлёво Восточное";"Бирюлёвская улица, дом 52, корпус 1";"37.6674194987727";"55.5851079047312";"пластик";"1711219";
30;"Искусственная дорожная неровность по адресу Борисовский проезд, дом 20";"Южный административный округ";"район Орехово-Борисово Северное";"Борисовский проезд, дом 20";"37.7264106642299";"55.6256708883571";"пластик";"1711216";
31;"Искусственная дорожная неровность по адресу Медынская улица, дом 7, строение 1";"Южный административный округ";"район Бирюлёво Западное";"Медынская улица, дом 7, строение 1";"37.647996449093";"55.5870420795992";"пластик";"1711222";
32;"Искусственная дорожная неровность по адресу Ряжская улица, дом 13, корпус 2";"Южный административный округ";"район Бирюлёво Восточное";"Ряжская улица, дом 13, корпус 2";"37.6689569078893";"55.5899564090187";"пластик";"1711225";
33;"Искусственная дорожная неровность по адресу Педагогическая улица, дом 3";"Южный административный округ";"район Бирюлёво Восточное";"Педагогическая улица, дом 3";"37.6663094002705";"55.5956238983792";"пластик";"1711227";
34;"Искусственная дорожная неровность по адресу Лебедянская улица, дом 12, корпус 1";"Южный административный округ";"район Бирюлёво Восточное";"Лебедянская улица, дом 12, корпус 1";"37.670929336962";"55.5868068999029";"асфальт";"1711221";
35;"Искусственная дорожная неровность по адресу улица Газопровод, дом 11, корпус 1";"Южный административный округ";"район Чертаново Южное";"улица Газопровод, дом 11, корпус 1";"37.6100827551844";"55.5891273048065";"пластик";"1711223";
36;"Искусственная дорожная неровность по адресу Кировоградская улица, дом 25, корпус 2";"Южный административный округ";"район Чертаново Южное";"Кировоградская улица, дом 25, корпус 2";"37.5966402484918";"55.5967301082107";"пластик";"1711229";
37;"Искусственная дорожная неровность по адресу улица Академика Янгеля, дом 4, корпус 2";"Южный административный округ";"район Чертаново Южное";"улица Академика Янгеля, дом 4, корпус 2";"37.594181487694";"55.5956351102041";"пластик";"1711228";
38;"Искусственная дорожная неровность по адресу Варшавское шоссе, дом 152, корпус 2";"Южный административный округ";"район Чертаново Южное";"Варшавское шоссе, дом 152, корпус 2";"37.5984185004276";"55.5893103490054";"пластик";"1711224";
39;"Искусственная дорожная неровность по адресу улица Газопровод, дом 11, корпус 2";"Южный административный округ";"район Чертаново Южное";"улица Газопровод, дом 11, корпус 2";"37.6079242490837";"55.5909934042734";"пластик";"1711226";
40;"Искусственная дорожная неровность по адресу Дорожная улица, дом 26";"Южный административный округ";"район Чертаново Южное";"Дорожная улица, дом 26";"37.6197990581632";"55.5971675262332";"пластик";"1711230";
41;"Искусственная дорожная неровность по адресу улица Генерала Белова, дом 55";"Южный административный округ";"район Орехово-Борисово Южное";"улица Генерала Белова, дом 55";"37.7258877998188";"55.6038326633629";"пластик";"1711236";
42;"Искусственная дорожная неровность по адресу Домодедовская улица, дом 29";"Южный административный округ";"район Орехово-Борисово Южное";"Домодедовская улица, дом 29";"37.7137318611745";"55.6040720108522";"пластик";"1711237";
43;"Искусственная дорожная неровность по адресу Липецкая улица, дом 2, строение 2";"Южный административный округ";"район Бирюлёво Восточное";"Липецкая улица, дом 2, строение 2";"37.6703982592543";"55.6016794121515";"пластик";"1711234";
44;"Искусственная дорожная неровность по адресу Воронежская улица, дом 52, корпус 1, строение 3";"Южный административный округ";"район Орехово-Борисово Южное";"Воронежская улица, дом 52, корпус 1, строение 3";"37.758675121913";"55.6117953733336";"пластик";"1711239";
45;"Искусственная дорожная неровность по адресу Дорожная улица, дом 7";"Южный административный округ";"район Чертаново Южное";"Дорожная улица, дом 7";"37.622842191918";"55.6033446594457";"пластик";"1711235";
46;"Искусственная дорожная неровность по адресу Кировоградская улица, дом 42, корпус 1";"Южный административный округ";"район Чертаново Южное";"Кировоградская улица, дом 42, корпус 1";"37.5986769547181";"55.6009296977744";"пластик";"1711233";
47;"Искусственная дорожная неровность по адресу Кировоградская улица, дом 23, строение 3";"Южный административный округ";"район Чертаново Южное";"Кировоградская улица, дом 23, строение 3";"37.5975558698199";"55.5986274108714";"пластик";"1711232";
48;"Искусственная дорожная неровность по адресу Вильнюсская улица, дом 12";"Юго-Западный административный округ";"район Ясенево";"Вильнюсская улица, дом 12";"37.5184890079678";"55.5985182203855";"асфальт";"1711231";
49;"Искусственная дорожная неровность по адресу Воронежская улица, дом 54";"Южный административный округ";"район Орехово-Борисово Южное";"Воронежская улица, дом 54";"37.7608316184824";"55.6112209259122";"пластик";"1711238";
50;"Искусственная дорожная неровность по адресу Ореховый бульвар, дом 21";"Южный административный округ";"район Орехово-Борисово Южное";"Ореховый бульвар, дом 21";"37.7245986634872";"55.6120548840401";"пластик";"1711240";
51;"Искусственная дорожная неровность по адресу Ореховый бульвар, дом 63, корпус 1";"Южный административный округ";"район Зябликово";"Ореховый бульвар, дом 63, корпус 1";"37.7604472248807";"55.6172740322979";"пластик";"1711248";
52;"Искусственная дорожная неровность по адресу улица Красного Маяка, дом 7, корпус 1";"Южный административный округ";"район Чертаново Центральное";"улица Красного Маяка, дом 7, корпус 1";"37.5918202677663";"55.6120957195997";"пластик";"1711241";
53;"Искусственная дорожная неровность по адресу Днепропетровская улица, дом 33";"Южный административный округ";"район Чертаново Центральное";"Днепропетровская улица, дом 33";"37.5843379105073";"55.6165473051775";"пластик";"1711246";
54;"Искусственная дорожная неровность по адресу улица Красного Маяка, дом 12";"Южный административный округ";"район Чертаново Центральное";"улица Красного Маяка, дом 12";"37.5905328067926";"55.6128939730376";"асфальт";"1711242";
55;"Искусственная дорожная неровность по адресу Кировоградская улица, дом 11, строение, 2";"Южный административный округ";"район Чертаново Центральное";"Кировоградская улица, дом 11, строение 2";"37.6065697917562";"55.6167273014411";"пластик";"1711247";
56;"Искусственная дорожная неровность по адресу улица Мусы Джалиля, дом 38, корпус 1";"Южный административный округ";"район Зябликово";"улица Мусы Джалиля, дом 38, корпус 1";"37.7436976683861";"55.6175177568594";"пластик";"1711250";
57;"Искусственная дорожная неровность по адресу Ореховый проезд, дом 43А";"Южный административный округ";"район Зябликово";"Ореховый проезд, дом 43А";"37.7294605021117";"55.6149675365588";"асфальт";"1711244";
58;"Искусственная дорожная неровность по адресу улица Красного Маяка, дом 10Д";"Южный административный округ";"район Чертаново Центральное";"улица Красного Маяка, дом 10Д";"37.5918202677663";"55.6131033402806";"пластик";"1711243";
59;"Искусственная дорожная неровность по адресу Соловьиный проезд, дом 6, корпус 1";"Юго-Западный административный округ";"район Ясенево";"Соловьиный проезд, дом 6, корпус 1";"37.550785990054";"55.615632618574";"пластик";"1711245";
60;"Искусственная дорожная неровность по адресу Борисовский проезд, дом 38, корпус 1";"Южный административный округ";"район Зябликово";"Борисовский проезд, дом 38, корпус 1";"37.7282444554065";"55.6173310496784";"пластик";"1711249";
61;"Искусственная дорожная неровность по адресу Днепропетровская улица, дом 5";"Южный административный округ";"район Чертаново Центральное";"Днепропетровская улица, дом 5";"37.6020559110654";"55.6225038629776";"пластик";"1711254";
62;"Искусственная дорожная неровность по адресу Кустанайская улица, дом 6";"Южный административный округ";"район Зябликово";"Кустанайская улица, дом 6";"37.7533935176242";"55.6195133191597";"пластик";"1711251";
63;"Искусственная дорожная неровность по адресу улица Вавилова, дом 86";"Юго-Западный административный округ";"Ломоносовский район";"улица Вавилова, дом 86";"37.5414762133688";"55.6767339470019";"пластик";"1711260";
64;"Искусственная дорожная неровность по адресу Днепропетровская улица, дом 25А";"Южный административный округ";"район Чертаново Центральное";"Днепропетровская улица, дом 25А";"37.5840204045634";"55.6202469102815";"пластик";"1711252";
65;"Искусственная дорожная неровность по адресу Севанская улица, дом 6";"Южный административный округ";"район Царицыно";"Севанская улица, дом 6";"37.6621197898377";"55.6211346443146";"пластик";"1711253";
66;"Искусственная дорожная неровность по адресу Севанская улица, дом 19";"Южный административный округ";"район Царицыно";"Севанская улица, дом 19";"37.6518876670361";"55.6239463579967";"пластик";"1711255";
67;"Искусственная дорожная неровность по адресу Большая Очаковская улица, дом 42";"Западный административный округ";"район Очаково-Матвеевское";"Большая Очаковская улица, дом 42";"37.446793398842";"55.6761389590435";"пластик";"1711257";
68;"Искусственная дорожная неровность по адресу Армавирская улица, дом 4";"Юго-Восточный административный округ";"район Люблино";"Армавирская улица, дом 4";"37.7524537414965";"55.6751587946411";"пластик";"1711256";
69;"Искусственная дорожная неровность по адресу 1-й Нагатинский проезд, дом 16";"Южный административный округ";"район Нагатино-Садовники";"1-й Нагатинский проезд, дом 16";"37.6326463402502";"55.6765122863161";"пластик";"1711259";
70;"Искусственная дорожная неровность по адресу улица Полбина, дом 42, строение 2";"Юго-Восточный административный округ";"район Печатники";"улица Полбина, дом 42, строение 2";"37.7279021433844";"55.6798188079562";"асфальт";"1711267";
71;"Искусственная дорожная неровность по адресу Коломенская набережная, дом 8";"Южный административный округ";"район Нагатинский Затон";"Коломенская набережная, дом 8";"37.707224994364";"55.6802340564328";"пластик";"1711270";
72;"Искусственная дорожная неровность по адресу улица Гурьянова, дом 55";"Юго-Восточный административный округ";"район Печатники";"улица Гурьянова, дом 55";"37.7165056036503";"55.680051817905";"пластик";"1711268";
73;"Искусственная дорожная неровность по адресу Озёрная улица, дом 22";"Западный административный округ";"район Очаково-Матвеевское";"Озёрная улица, дом 22";"37.4554183763114";"55.6780902251818";"пластик";"1711262";
74;"Искусственная дорожная неровность по адресу Нагорная улица, дом 21, корпус 1";"Юго-Западный административный округ";"район Котловка";"Нагорная улица, дом 21, корпус 1";"37.6031269544124";"55.6784708269682";"пластик";"1711263";
75;"Искусственная дорожная неровность по адресу Коломенская набережная, дом 10";"Южный административный округ";"район Нагатинский Затон";"Коломенская набережная, дом 10";"37.7063505940294";"55.6795642004529";"пластик";"1711266";
76;"Искусственная дорожная неровность по адресу улица Садовники, дом 4";"Южный административный округ";"район Нагатино-Садовники";"улица Садовники, дом 4";"37.6501744082111";"55.6778701844046";"пластик";"1711261";
77;"Искусственная дорожная неровность по адресу Высокая улица, дом 6";"Южный административный округ";"район Нагатино-Садовники";"Высокая улица, дом 6";"37.6544064326001";"55.6795491389951";"пластик";"1711265";
78;"Искусственная дорожная неровность по адресу Затонная улица, дом 7";"Южный административный округ";"район Нагатинский Затон";"Затонная улица, дом 7";"37.6839120706208";"55.6801002183463";"пластик";"1711269";
79;"Искусственная дорожная неровность на УДС Нагатинский бульвар с привязкой к адресу Нагатинская набережная, дом 16А";"Южный административный округ";"район Нагатино-Садовники";"Нагатинская набережная, дом 16А";"37.6530604661486";"55.6824678370496";"пластик";"1711275";
80;"Искусственная дорожная неровность по адресу улица Маршала Полубоярова, дом 20";"Юго-Восточный административный округ";"район Выхино-Жулебино";"улица Маршала Полубоярова, дом 20";"37.861931926432";"55.6828430724782";"пластик";"1711276";
81;"Искусственная дорожная неровность по адресу Нагорная улица, дом 11";"Юго-Западный административный округ";"район Котловка";"Нагорная улица, дом 11";"37.6079804117553";"55.680570873327";"пластик";"1711271";
82;"Искусственная дорожная неровность по адресу Коломенская улица, дом 7, строение 2";"Южный административный округ";"район Нагатинский Затон";"Коломенская улица, дом 7, строение 2";"37.7017264657987";"55.6823405423802";"пластик";"1711274";
83;"Искусственная дорожная неровность по адресу Привольная улица, дом 57, корпус 1";"Юго-Восточный административный округ";"район Выхино-Жулебино";"Привольная улица, дом 57, корпус 1";"37.8430438423686";"55.6832745040683";"пластик";"1711279";
84;"Искусственная дорожная неровность по адресу Кленовый бульвар, дом 7";"Южный административный округ";"район Нагатинский Затон";"Кленовый бульвар, дом 7";"37.6738923445867";"55.6831816840186";"пластик";"1711278";
85;"Искусственная дорожная неровность по адресу улица Маршала Полубоярова, дом 22";"Юго-Восточный административный округ";"район Выхино-Жулебино";"улица Маршала Полубоярова, дом 22";"37.8615423666192";"55.6822021686046";"пластик";"1711273";
86;"Искусственная дорожная неровность по адресу Коломенская улица, дом 5";"Южный административный округ";"район Нагатинский Затон";"Коломенская улица, дом 5";"37.7025203986435";"55.6831770434914";"пластик";"1711277";
87;"Искусственная дорожная неровность по адресу улица Авиаконструктора Миля, дом 15, корпус 1";"Юго-Восточный административный округ";"район Выхино-Жулебино";"улица Авиаконструктора Миля, дом 15, корпус 1";"37.8571105173852";"55.6806974206293";"пластик";"1711272";
88;"Искусственная дорожная неровность по адресу улица Гурьянова, дом 35";"Юго-Восточный административный округ";"район Печатники";"улица Гурьянова, дом 35";"37.7174190636318";"55.6834313438715";"пластик";"1711280";
89;"Искусственная дорожная неровность по адресу Батюнинская улица, дом 10";"Юго-Восточный административный округ";"район Печатники";"Батюнинская улица, дом 10";"37.702633386045";"55.6583719696669";"асфальт";"1711288";
90;"Искусственная дорожная неровность по адресу 1-я Курьяновская улица, дом 35";"Юго-Восточный административный округ";"район Печатники";"1-я Курьяновская улица, дом 35";"37.7017340080539";"55.6536637048461";"пластик";"1711282";
91;"Искусственная дорожная неровность по адресу Старокалужское шоссе, дом 64";"Юго-Западный административный округ";"Обручевский район";"Старокалужское шоссе, дом 64";"37.5383777586638";"55.6584180262971";"пластик";"1711289";
92;"Искусственная дорожная неровность по адресу Большая Очаковская улица, дом 16";"Западный административный округ";"район Очаково-Матвеевское";"Большая Очаковская улица, дом 16";"37.4576208064362";"55.6836181083734";"пластик";"1711281";
93;"Искусственная дорожная неровность по адресу Перервинский бульвар, дом 25";"Юго-Восточный административный округ";"район Марьино";"Перервинский бульвар, дом 25";"37.7736537531313";"55.6550220214235";"пластик";"1711284";
94;"Искусственная дорожная неровность по адресу Одесская улица, дом 16";"Юго-Западный административный округ";"район Зюзино";"Одесская улица, дом 16";"37.5903524313718";"55.6561369944622";"пластик";"1711286";
95;"Искусственная дорожная неровность по адресу Малая Юшуньская улица, дом 4";"Юго-Западный административный округ";"район Зюзино";"Малая Юшуньская улица, дом 4";"37.5945743946295";"55.6539243559832";"пластик";"1711283";
96;"Искусственная дорожная неровность по адресу Новомарьинская улица, дом 15";"Юго-Восточный административный округ";"район Марьино";"Новомарьинская улица, дом 15";"37.7664263736826";"55.6578309137198";"пластик";"1711287";
97;"Искусственная дорожная неровность по адресу улица 50 лет Октября, дом 29";"Западный административный округ";"район Солнцево";"улица 50 лет Октября, дом 29";"37.4120908110698";"55.6585024644941";"пластик";"1711290";
98;"Искусственная дорожная неровность по адресу Керченская улица, дом 1";"Юго-Западный административный округ";"район Зюзино";"Керченская улица, дом 1";"37.58369250601";"55.6558463101448";"пластик";"1711285";
99;"Искусственная дорожная неровность 1 по адресу Старокалужское шоссе, дом 62, строение 5";"Юго-Западный административный округ";"Обручевский район";"Старокалужское шоссе, дом 62, строение 5";"37.5358237935138";"55.6611249905745";"пластик";"1711293";
100;"Искусственная дорожная неровность по адресу Белореченская улица, дом 49";"Юго-Восточный административный округ";"район Марьино";"Белореченская улица, дом 49";"37.7777092540753";"55.6608728239376";"пластик";"1711292";
101;"Искусственная дорожная неровность по адресу улица 26-ти Бакинских Комиссаров, дом 10, корпус 6";"Западный административный округ";"район Тропарёво-Никулино";"улица 26-ти Бакинских Комиссаров, дом 10, корпус 6";"37.4933193294143";"55.6619137880291";"пластик";"1711298";
102;"Искусственная дорожная неровность по адресу Сивашская улица, дом 5";"Юго-Западный административный округ";"район Зюзино";"Сивашская улица, дом 5";"37.6060976686839";"55.6596030152041";"асфальт";"1711291";
103;"Искусственная дорожная неровность 2 по адресу Старокалужское шоссе, дом 62, строение 5";"Юго-Западный административный округ";"Обручевский район";"Старокалужское шоссе, дом 62, строение 5";"37.5362448994645";"55.6613251347399";"пластик";"1711295";
104;"Искусственная дорожная неровность по адресу улица Новаторов, дом 34";"Юго-Западный административный округ";"Обручевский район";"улица Новаторов, дом 34";"37.5259450499788";"55.6633083184632";"пластик";"1711300";
105;"Искусственная дорожная неровность по адресу улица Академика Анохина, дом 32";"Западный административный округ";"район Тропарёво-Никулино";"улица Академика Анохина, дом 30, корпус 3, строение 2";"37.4667649580375";"55.661858844133";"пластик";"1711296";
106;"Искусственная дорожная неровность по адресу улица Академика Миллионщикова, дом 22";"Южный административный округ";"район Нагатино-Садовники";"улица Академика Миллионщикова, дом 22";"37.6452391439902";"55.663269471337";"пластик";"1711299";
107;"Искусственная дорожная неровность по адресу Перекопская улица, дом 21";"Юго-Западный административный округ";"район Черёмушки";"Перекопская улица, дом 21";"37.5687168949277";"55.6611312461244";"пластик";"1711294";
108;"Искусственная дорожная неровность по адресу улица Академика Челомея, дом 6";"Юго-Западный административный округ";"Обручевский район";"улица Академика Челомея, дом 6";"37.5331162703492";"55.6618727753272";"пластик";"1711297";
109;"Искусственная дорожная неровность по адресу 1-й Дачно-Мещерский проезд, дом 13";"Западный административный округ";"район Солнцево";"1-й Дачно-Мещерский проезд, дом 13";"37.4206551046469";"55.6658862714093";"пластик";"1711303";
110;"Искусственная дорожная неровность по адресу Коломенский проезд, дом 16, строение 2";"Южный административный округ";"район Нагатино-Садовники";"Коломенский проезд, дом 16, строение 2";"37.6531248376252";"55.666492119968";"пластик";"1711305";
111;"Искусственная дорожная неровность по адресу Новочерёмушкинская улица, дом 69";"Юго-Западный административный округ";"район Черёмушки";"Новочерёмушкинская улица, дом 69";"37.5612269945153";"55.6634499852201";"пластик";"1711301";
112;"Искусственная дорожная неровность по адресу улица Новаторов, дом 16";"Юго-Западный административный округ";"Обручевский район";"улица Новаторов, дом 16";"37.5252238716889";"55.6678851391063";"пластик";"1711307";
113;"Искусственная дорожная неровность по адресу улица Кошкина, дом 10, корпус 1";"Южный административный округ";"район Москворечье-Сабурово";"улица Кошкина, дом 10, корпус 1";"37.6716173260954";"55.6403868567779";"пластик";"1711308";
114;"Искусственная дорожная неровность по адресу улица Верхние Поля, дом 9, корпус 1";"Юго-Восточный административный округ";"район Марьино";"улица Верхние Поля, дом 9, корпус 1";"37.7478032935263";"55.6649169327138";"пластик";"1711302";
115;"Искусственная дорожная неровность по адресу Алма-Атинская улица, дом 5";"Южный административный округ";"район Братеево";"Алма-Атинская улица, дом 5";"37.7702295782875";"55.6404555997847";"пластик";"1711309";
116;"Искусственная дорожная неровность по адресу улица Академика Бакулева, дом 5";"Юго-Западный административный округ";"район Тёплый Стан";"улица Академика Бакулева, дом 5";"37.4833569338617";"55.6409930047251";"пластик";"1711310";
117;"Искусственная дорожная неровность по адресу Криворожский проезд, дом 17А";"Южный административный округ";"Нагорный район";"Криворожский проезд, дом 17А";"37.6118877194235";"55.6667873666938";"пластик";"1711306";
118;"Искусственная дорожная неровность на УДС Старобалаклавская улица с привязкой к адресу Балаклавский проспект, дом 26, корпус 1";"Юго-Западный административный округ";"район Зюзино";"Балаклавский проспект, дом 26, корпус 1";"37.5952105806155";"55.6429118826673";"пластик";"1711313";
119;"Искусственная дорожная неровность по адресу улица Кошкина, дом 6";"Южный административный округ";"район Москворечье-Сабурово";"улица Кошкина, дом 6";"37.67217137103";"55.6429374062292";"пластик";"1711314";
120;"Искусственная дорожная неровность по адресу улица Авиаторов, дом 14";"Западный административный округ";"район Солнцево";"улица Авиаторов, дом 14";"37.3984150640003";"55.6446207981167";"пластик";"1711319";
121;"Искусственная дорожная неровность по адресу Волынская улица, дом 7";"Западный административный округ";"район Солнцево";"Волынская улица, дом 7";"37.4127559973681";"55.6434719330979";"пластик";"1711315";
122;"Искусственная дорожная неровность по адресу улица Борисовские Пруды, дом 38";"Южный административный округ";"район Братеево";"улица Борисовские Пруды, дом 38";"37.7656012585177";"55.6427695945632";"пластик";"1711312";
123;"Искусственная дорожная неровность по адресу улица Москворечье, дом 47, корпус 1";"Южный административный округ";"район Москворечье-Сабурово";"улица Москворечье, дом 47, корпус 1";"37.666793373918";"55.6443274763358";"асфальт";"1711318";
124;"Искусственная дорожная неровность 1 по адресу улица Шолохова, дом 30";"Западный административный округ";"район Ново-Переделкино";"улица Шолохова, дом 30";"37.3421173433106";"55.6442248903253";"пластик";"1711317";
125;"Искусственная дорожная неровность по адресу Азовская улица, дом 41";"Юго-Западный административный округ";"район Зюзино";"Азовская улица, дом 41";"37.594581769798";"55.6439631333444";"пластик";"1711316";
126;"Искусственная дорожная неровность по адресу Батайский проезд, дом 5";"Юго-Восточный административный округ";"район Марьино";"Батайский проезд, дом 5";"37.7128643356467";"55.642327589005";"асфальт";"1711311";
127;"Искусственная дорожная неровность по адресу улица Москворечье, дом 47, корпус 2";"Южный административный округ";"район Москворечье-Сабурово";"улица Москворечье, дом 47, корпус 2";"37.6676466521653";"55.6449445638365";"асфальт";"1711320";
128;"Искусственная дорожная неровность по адресу Люблинская улица, дом 108А";"Юго-Восточный административный округ";"район Марьино";"Люблинская улица, дом 108А";"37.7420095543041";"55.6515439151887";"асфальт";"1711326";
129;"Искусственная дорожная неровность по адресу улица Саморы Машела, дом 4";"Юго-Западный административный округ";"Обручевский район";"улица Саморы Машела, дом 4";"37.4944728470875";"55.6511518630944";"пластик";"1711325";
130;"Искусственная дорожная неровность по адресу улица Академика Миллионщикова, дом 19";"Южный административный округ";"район Нагатино-Садовники";"улица Академика Миллионщикова, дом 19";"37.6482217609393";"55.6684240700804";"пластик";"1711329";
131;"Искусственная дорожная неровность 1 по адресу улица Верхние Поля, дом 35, корпус 3";"Юго-Восточный административный округ";"район Люблино";"улица Верхние Поля, дом 35, корпус 3";"37.7585571084375";"55.6685029025959";"асфальт";"1711330";
132;"Искусственная дорожная неровность по адресу улица Генерала Антонова, дом 3";"Юго-Западный административный округ";"район Коньково";"улица Генерала Антонова, дом 3";"37.5338408011517";"55.6451387206982";"пластик";"1711321";
133;"Искусственная дорожная неровность по адресу улица Бутлерова, дом 5";"Юго-Западный административный округ";"район Коньково";"улица Бутлерова, дом 5";"37.5253660273877";"55.6535650321618";"пластик";"1711327";
134;"Искусственная дорожная неровность по адресу Артековская улица, дом 3";"Южный административный округ";"Нагорный район";"Артековская улица, дом 3";"37.6131946253298";"55.6509328061719";"пластик";"1711323";
135;"Искусственная дорожная неровность по адресу Люблинская улица, дом 163";"Юго-Восточный административный округ";"район Марьино";"Люблинская улица, дом 163";"37.7439437636548";"55.6510850410958";"пластик";"1711324";
136;"Искусственная дорожная неровность по адресу проспект Вернадского, дом 127";"Западный административный округ";"район Тропарёво-Никулино";"проспект Вернадского, дом 127";"37.4802350124666";"55.6535748894063";"пластик";"1711328";
137;"Искусственная дорожная неровность по адресу Солнцевский проспект, дом 9";"Западный административный округ";"район Солнцево";"Солнцевский проспект, дом 9";"37.4014711056474";"55.650848818466";"пластик";"1711322";
138;"Искусственная дорожная неровность 2 по адресу улица Верхние Поля, дом 35, корпус 3";"Юго-Восточный административный округ";"район Люблино";"улица Верхние Поля, дом 35, корпус 3";"37.7587073130412";"55.66893588204";"асфальт";"1711331";
139;"Искусственная дорожная неровность по адресу улица Мусы Джалиля, дом 5, корпус 5";"Южный административный округ";"район Зябликово";"улица Мусы Джалиля, дом 5, корпус 5";"37.7482104863699";"55.6304388691858";"пластик";"1711335";
140;"Искусственная дорожная неровность по адресу Братеевская улица, дом 23";"Южный административный округ";"район Братеево";"Братеевская улица, дом 23";"37.7574568967933";"55.6321626377088";"пластик";"1711340";
141;"Искусственная дорожная неровность по адресу улица Академика Капицы, дом 10";"Юго-Западный административный округ";"район Ясенево";"улица Академика Капицы, дом 10";"37.5242560941754";"55.6300160674511";"пластик";"1711334";
142;"Искусственная дорожная неровность по адресу улица Академика Миллионщикова, дом 13, корпус 1";"Южный административный округ";"район Нагатино-Садовники";"улица Академика Миллионщикова, дом 13, корпус 1";"37.6488118471814";"55.6696150239429";"пластик";"1711333";
143;"Искусственная дорожная неровность по адресу Кавказский бульвар, дом 18";"Южный административный округ";"район Царицыно";"Кавказский бульвар, дом 18";"37.6675024824437";"55.6320736807012";"пластик";"1711339";
144;"Искусственная дорожная неровность по адресу Кировоградская улица, дом 4, корпус 1";"Южный административный округ";"район Чертаново Северное";"Кировоградская улица, дом 4, корпус 1";"37.6129989902272";"55.6312071560022";"пластик";"1711337";
145;"Искусственная дорожная неровность по адресу улица Академика Анохина, дом 6, корпус 4";"Западный административный округ";"район Тропарёво-Никулино";"улица Академика Анохина, дом 6, корпус 4";"37.470691712435";"55.6695216121698";"пластик";"1711332";
146;"Искусственная дорожная неровность по адресу Кировоградская улица, дом 2";"Южный административный округ";"район Чертаново Северное";"Кировоградская улица, дом 2";"37.6133798651279";"55.6319458407169";"пластик";"1711338";
147;"Искусственная дорожная неровность по адресу улица Введенского, дом 26";"Юго-Западный административный округ";"район Коньково";"улица Введенского, дом 26";"37.5342313976204";"55.6350825108967";"пластик";"1711343";
148;"Искусственная дорожная неровность по адресу Родниковая улица, дом 7";"Западный административный округ";"район Солнцево";"Родниковая улица, дом 7";"37.3906116794015";"55.6322001019046";"пластик";"1711341";
149;"Искусственная дорожная неровность по адресу Ключевая улица, дом 6";"Южный административный округ";"район Братеево";"Ключевая улица, дом 6";"37.7583646578626";"55.6379558069844";"пластик";"1711349";
150;"Искусственная дорожная неровность по адресу улица Академика Варги, дом 36";"Юго-Западный административный округ";"район Тёплый Стан";"улица Академика Варги, дом 36";"37.4796833130332";"55.6345564927983";"пластик";"1711342";
151;"Искусственная дорожная неровность по адресу 3-й квартал Капотня, дом 13";"Юго-Восточный административный округ";"район Капотня";"3-й квартал Капотня, дом 13";"37.7954213877363";"55.6352833616929";"асфальт";"1711344";
152;"Искусственная дорожная неровность по адресу улица Скульптора Мухиной, дом 12";"Западный административный округ";"район Ново-Переделкино";"улица Скульптора Мухиной, дом 12";"37.3408727966547";"55.6385603802272";"пластик";"1711350";
153;"Искусственная дорожная неровность по адресу Братеевская улица, дом 18";"Южный административный округ";"район Братеево";"Братеевская улица, дом 18";"37.7673705084361";"55.6360316420951";"пластик";"1711345";
154;"Искусственная дорожная неровность по адресу Кантемировская улица, дом 3, корпус 3";"Южный административный округ";"район Царицыно";"Кантемировская улица, дом 3, корпус 3";"37.678520158605";"55.6364492526802";"пластик";"1711347";
155;"Искусственная дорожная неровность по адресу Кантемировская улица, дом 41";"Южный административный округ";"район Царицыно";"Кантемировская улица, дом 41";"37.6592831877499";"55.6372156216717";"пластик";"1711348";
156;"Искусственная дорожная неровность по адресу Кантемировская улица, дом 17, корпус 1";"Южный административный округ";"район Царицыно";"Кантемировская улица, дом 17, корпус 1";"37.6708440122814";"55.6363529101085";"пластик";"1711346";
157;"Искусственная дорожная неровность по адресу Мариупольская улица, дом 3";"Юго-Восточный административный округ";"район Люблино";"Мариупольская улица, дом 3";"37.7414152801161";"55.6746750956643";"асфальт";"1711359";
158;"Искусственная дорожная неровность по адресу улица Гарибальди, дом 21, корпус 5";"Юго-Западный административный округ";"Обручевский район";"улица Гарибальди, дом 21, корпус 5";"37.5513189137997";"55.6709951230498";"пластик";"1711352";
159;"Искусственная дорожная неровность по адресу Новочерёмушкинская улица, дом 48";"Юго-Западный административный округ";"район Черёмушки";"Новочерёмушкинская улица, дом 48";"37.5685184112673";"55.671930982304";"пластик";"1711354";
160;"Искусственная дорожная неровность по адресу улица Садовники, дом 13";"Южный административный округ";"район Нагатино-Садовники";"улица Садовники, дом 13";"37.6575561829043";"55.6730911392517";"пластик";"1711356";
161;"Искусственная дорожная неровность по адресу Белореченская улица, дом 19";"Юго-Восточный административный округ";"район Люблино";"Белореченская улица, дом 19";"37.7654748610657";"55.6723174241245";"пластик";"1711355";
162;"Искусственная дорожная неровность по адресу проспект Вернадского, дом 57";"Западный административный округ";"район Проспект Вернадского";"проспект Вернадского, дом 57";"37.5052640462876";"55.6718732768732";"пластик";"1711353";
163;"Искусственная дорожная неровность по адресу Мичуринский Проспект, Олимпийская Деревня улица 8, корпус 1";"Западный административный округ";"район Тропарёво-Никулино";"улица Мичуринский Проспект, Олимпийская Деревня, дом 8, корпус 1";"37.469221862916";"55.673410679847";"пластик";"1711357";
164;"Искусственная дорожная неровность 2 по адресу Лениногорская улица, дом 31";"Восточный административный округ";"район Косино-Ухтомский";"Лениногорская улица, дом 31";"37.8645447653691";"55.6991920268941";"пластик";"1711360";
165;"Искусственная дорожная неровность по адресу Рябиновая улица, дом 44";"Западный административный округ";"район Очаково-Матвеевское";"Рябиновая улица, дом 44";"37.4364787963243";"55.6745871778899";"пластик";"1711358";
166;"Искусственная дорожная неровность по адресу улица Академика Арцимовича, дом 9";"Юго-Западный административный округ";"район Коньково";"улица Академика Арцимовича, дом 9";"37.5125110377555";"55.6401648908091";"асфальт";"1711351";
167;"Искусственная дорожная неровность по адресу улица Фотиевой, дом 12";"Юго-Западный административный округ";"Гагаринский район";"улица Фотиевой, дом 12";"37.5600439312524";"55.6992480660037";"асфальт";"1711361";
168;"Искусственная дорожная неровность по адресу Самаркандский бульвар, дом 9, корпус 1";"Юго-Восточный административный округ";"район Выхино-Жулебино";"Самаркандский бульвар, дом 9, корпус 1";"37.8219194347448";"55.7005993082338";"пластик";"1711362";
169;"Искусственная дорожная неровность по адресу Волгоградский проспект, дом 149";"Юго-Восточный административный округ";"район Кузьминки";"Волгоградский проспект, дом 149";"37.7810147426055";"55.7038009794948";"асфальт";"1711368";
170;"Искусственная дорожная неровность по адресу улица Артюхиной, дом 8/10";"Юго-Восточный административный округ";"район Текстильщики";"улица Артюхиной, дом 8/10";"37.7373269286805";"55.7013440688325";"пластик";"1711363";
171;"Искусственная дорожная неровность по адресу Автозаводская улица, дом 15/2";"Южный административный округ";"Даниловский район";"Автозаводская улица, дом 15/2";"37.6564011578581";"55.705010446809";"пластик";"1711369";
172;"Искусственная дорожная неровность по адресу улица Лобанова, дом 3";"Южный административный округ";"Даниловский район";"улица Лобанова, дом 3";"37.6593601383354";"55.7015674733892";"пластик";"1711364";
173;"Искусственная дорожная неровность по адресу Веерная улица, дом 1, корпус 5";"Западный административный округ";"район Очаково-Матвеевское";"Веерная улица, дом 1, корпус 5";"37.4805077616481";"55.7050599501564";"пластик";"1711370";
174;"Искусственная дорожная неровность по адресу 1-я улица Текстильщиков, дом 16";"Юго-Восточный административный округ";"район Текстильщики";"1-я улица Текстильщиков, дом 16";"37.7408520157718";"55.7016269264694";"асфальт";"1711365";
175;"Искусственная дорожная неровность по адресу Златоустовская улица, дом 3";"Восточный административный округ";"район Косино-Ухтомский";"Златоустовская улица, дом 3";"37.8638115173151";"55.7034031174719";"пластик";"1711367";
176;"Искусственная дорожная неровность по адресу Сормовский проезд, дом 11, строение 1";"Юго-Восточный административный округ";"район Выхино-Жулебино";"Сормовский проезд, дом 11, строение 1";"37.8040138470907";"55.7059959262775";"пластик";"1711373";
177;"Искусственная дорожная неровность по адресу Волгоградский проспект, дом 125";"Юго-Восточный административный округ";"район Кузьминки";"Волгоградский проспект, дом 125";"37.7685991324536";"55.7053493239625";"пластик";"1711372";
178;"Искусственная дорожная неровность по адресу 5-я Кожуховская улица, дом 15";"Юго-Восточный административный округ";"Южнопортовый район";"5-я Кожуховская улица, дом 15";"37.6722902298202";"55.7051740168626";"пластик";"1711371";
179;"Искусственная дорожная неровность по адресу 4-й Вешняковский проезд, дом 1";"Юго-Восточный административный округ";"Рязанский район";"4-й Вешняковский проезд, дом 1";"37.7946707069758";"55.7181013970341";"пластик";"1711376";
180;"Искусственная дорожная неровность по адресу Нежинская улица, дом 2";"Западный административный округ";"район Очаково-Матвеевское";"Нежинская улица, дом 2";"37.4745126902078";"55.7167407329256";"пластик";"1711374";
181;"Искусственная дорожная неровность по адресу 1-я Новокузьминская улица, дом 6, корпус 2";"Юго-Восточный административный округ";"Рязанский район";"1-я Новокузьминская улица, дом 30, строение 1";"37.7823305346465";"55.7178049310437";"пластик";"1711375";
182;"Искусственная дорожная неровность по адресу Оранжерейная улица, дом 14";"Восточный административный округ";"район Косино-Ухтомский";"Оранжерейная улица, дом 14";"37.8640609624015";"55.718302384183";"пластик";"1711377";
183;"Искусственная дорожная неровность по адресу улица Медведева, дом 8";"Восточный административный округ";"район Косино-Ухтомский";"улица Медведева, дом 8";"37.8875814203316";"55.7187172240105";"пластик";"1711379";
184;"Искусственная дорожная неровность по адресу Большая Косинская улица, дом 27";"Восточный административный округ";"район Косино-Ухтомский";"Большая Косинская улица, дом 27";"37.8584568216032";"55.7184761174635";"асфальт";"1711378";
185;"Искусственная дорожная неровность по адресу Донская улица, дом 37";"Южный административный округ";"Донской район";"Донская улица, дом 37";"37.6043979887927";"55.7189776255659";"пластик";"1711380";
186;"Искусственная дорожная неровность по адресу улица Артамонова, дом 3";"Западный административный округ";"район Фили-Давыдково";"улица Артамонова, дом 3";"37.4601863409887";"55.7194783718129";"пластик";"1711383";
187;"Искусственная дорожная неровность по адресу Нежинская улица, дом 1, корпус 3";"Западный административный округ";"район Очаково-Матвеевское";"Нежинская улица, дом 1, корпус 3";"37.4771290173031";"55.7191344208228";"пластик";"1711382";
188;"Искусственная дорожная неровность по адресу Мосфильмовская улица, дом 44";"Западный административный округ";"район Раменки";"Мосфильмовская улица, дом 44";"37.5186953761414";"55.719655886032";"пластик";"1711384";
189;"Искусственная дорожная неровность по адресу Донская улица, дом 25";"Центральный административный округ";"район Якиманка";"Донская улица, дом 25";"37.6062716777443";"55.7218156864329";"пластик";"1711386";
190;"Искусственная дорожная неровность по адресу улица Молдагуловой, дом 11, корпус 1";"Восточный административный округ";"район Вешняки";"улица Молдагуловой, дом 11, корпус 1";"37.8269212533484";"55.7209766134627";"пластик";"1711385";
191;"Искусственная дорожная неровность по адресу Староволынская улица, дом 10";"Западный административный округ";"район Очаково-Матвеевское";"Староволынская улица, дом 10";"37.4828791702677";"55.7189797051364";"пластик";"1711381";
192;"Искусственная дорожная неровность по адресу Новоостаповская улица, дом 5, строение 1";"Юго-Восточный административный округ";"Южнопортовый район";"Новоостаповская улица, дом 5, строение 1";"37.6782517752358";"55.7219515588017";"пластик";"1711388";
193;"Искусственная дорожная неровность по адресу Давыдковская улица, дом 10";"Западный административный округ";"район Фили-Давыдково";"Давыдковская улица, дом 10";"37.4743606422611";"55.7220966033517";"пластик";"1711389";
194;"Искусственная дорожная неровность по адресу Лухмановская улица, дом 19А";"Восточный административный округ";"район Косино-Ухтомский";"Лухмановская улица, дом 19А";"37.898107078432";"55.7226999796396";"пластик";"1711390";
195;"Искусственная дорожная неровность по адресу улица Горбунова, дом 7";"Западный административный округ";"Можайский район";"улица Горбунова, дом 7";"37.3880344182413";"55.7227070641769";"пластик";"1711391";
196;"Искусственная дорожная неровность по адресу Косинская улица, дом 10А";"Восточный административный округ";"район Вешняки";"Косинская улица, дом 10А";"37.8366340358297";"55.7240729159921";"асфальт";"1711393";
197;"Искусственная дорожная неровность по адресу Славянский бульвар, дом 9, корпус 1";"Западный административный округ";"район Фили-Давыдково";"Славянский бульвар, дом 9, корпус 1";"37.468208325222";"55.7268552551775";"пластик";"1711397";
198;"Искусственная дорожная неровность по адресу 1-й Вешняковский проезд, дом 2";"Юго-Восточный административный округ";"Рязанский район";"1-й Вешняковский проезд, дом 2";"37.7867065580772";"55.7252674672783";"пластик";"1711395";
199;"Искусственная дорожная неровность по адресу улица Довженко, дом 4";"Западный административный округ";"район Раменки";"улица Довженко, дом 4";"37.5170939306197";"55.7228997997282";"пластик";"1711392";
200;"Искусственная дорожная неровность по адресу улица Молдагуловой, дом 6";"Восточный административный округ";"район Вешняки";"улица Молдагуловой, дом 1";"37.8116626693584";"55.7276313955761";"асфальт";"1711398";
201;"Искусственная дорожная неровность по адресу Рязанский проспект, дом 47";"Юго-Восточный административный округ";"Рязанский район";"Рязанский проспект, дом 47";"37.762698107437";"55.7257110871348";"пластик";"1711396";
202;"Искусственная дорожная неровность по адресу улица Маршала Полубоярова, дом 10";"Юго-Восточный административный округ";"район Выхино-Жулебино";"улица Маршала Полубоярова, дом 10";"37.8641137671705";"55.6867688149124";"пластик";"1711400";
203;"Искусственная дорожная неровность по адресу улица Винокурова, дом 19";"Юго-Западный административный округ";"район Котловка";"улица Винокурова, дом 19";"37.5980322670763";"55.6844038200712";"пластик";"1711399";
204;"Искусственная дорожная неровность 1 по адресу Привольная улица, дом 41";"Юго-Восточный административный округ";"район Выхино-Жулебино";"Привольная улица, дом 41";"37.8483896519457";"55.6891775062482";"пластик";"1711404";
205;"Искусственная дорожная неровность 2 по адресу Привольная улица, дом 41";"Юго-Восточный административный округ";"район Выхино-Жулебино";"Привольная улица, дом 41";"37.8490732797584";"55.6897438842059";"пластик";"1711405";
206;"Искусственная дорожная неровность по адресу Нагатинская набережная, дом 56";"Южный административный округ";"район Нагатинский Затон";"Нагатинская набережная, дом 56";"37.6886289049888";"55.6907491563049";"пластик";"1711407";
207;"Искусственная дорожная неровность по адресу улица Гримау, дом 8";"Юго-Западный административный округ";"Академический район";"улица Гримау, дом 8";"37.5802160294537";"55.690496512175";"пластик";"1711406";
208;"Искусственная дорожная неровность по адресу улица Ивана Бабушкина, дом 6";"Юго-Западный административный округ";"Академический район";"улица Ивана Бабушкина, дом 6";"37.5645926656779";"55.6883059945838";"пластик";"1711403";
209;"Искусственная дорожная неровность по адресу улица Генерала Кузнецова, дом 13";"Юго-Восточный административный округ";"район Выхино-Жулебино";"улица Генерала Кузнецова, дом 13";"37.858915814001";"55.6878280516665";"пластик";"1711402";
210;"Искусственная дорожная неровность по адресу улица Генерала Дорохова, дом 18";"Западный административный округ";"район Очаково-Матвеевское";"улица Генерала Дорохова, дом 18";"37.4439328243125";"55.6909138220239";"пластик";"1711408";
211;"Искусственная дорожная неровность по адресу Ломоносовский проспект, дом 14";"Юго-Западный административный округ";"Гагаринский район";"Ломоносовский проспект, дом 14";"37.543644613514";"55.6914461825614";"асфальт";"1711410";
212;"Искусственная дорожная неровность по адресу улица Полбина, дом 18";"Юго-Восточный административный округ";"район Печатники";"улица Полбина, дом 18";"37.7288117468983";"55.687751530227";"пластик";"1711401";
213;"Искусственная дорожная неровность по адресу Ломоносовский проспект, дом 12";"Юго-Западный административный округ";"Гагаринский район";"Ломоносовский проспект, дом 12";"37.5458787245239";"55.6910793458012";"асфальт";"1711409";
214;"Искусственная дорожная неровность по адресу улица Раменки, дом 17 корпус 2";"Западный административный округ";"район Раменки";"улица Раменки, дом 17, корпус 2";"37.4927874171716";"55.6919164164498";"пластик";"1711411";
215;"Искусственная дорожная неровность по адресу улица Артюхиной, дом 20";"Юго-Восточный административный округ";"район Текстильщики";"улица Артюхиной, дом 20";"37.7384834584048";"55.6970070145714";"асфальт";"1711415";
216;"Искусственная дорожная неровность 1 по адресу Лениногорская улица, дом 31";"Восточный административный округ";"район Косино-Ухтомский";"Лениногорская улица, дом 31";"37.8643943936788";"55.6990102543584";"пластик";"1711417";
217;"Искусственная дорожная неровность по адресу улица Маёвок, дом 4";"Юго-Восточный административный округ";"Рязанский район";"улица Маёвок, дом 4";"37.7697764554818";"55.7290703796022";"пластик";"1711418";
218;"Искусственная дорожная неровность по адресу улица Герасима Курина, дом 20";"Западный административный округ";"район Фили-Давыдково";"улица Герасима Курина, дом 20";"37.4675451502517";"55.7301885278039";"пластик";"1711419";
219;"Искусственная дорожная неровность по адресу Привольная улица, дом 19";"Юго-Восточный административный округ";"район Выхино-Жулебино";"Привольная улица, дом 19";"37.8422960092676";"55.6973880929443";"асфальт";"1711416";
220;"Искусственная дорожная неровность по адресу Очаковское шоссе, дом 10";"Западный административный округ";"район Очаково-Матвеевское";"Очаковское шоссе, дом 10";"37.4576099107701";"55.6949946743515";"пластик";"1711414";
221;"Искусственная дорожная неровность по адресу Ломоносовский проспект, дом 16";"Юго-Западный административный округ";"Гагаринский район";"Ломоносовский проспект, дом 16";"37.543301792147";"55.6925925939226";"асфальт";"1711412";
222;"Искусственная дорожная неровность по адресу Молдавская улица, дом 10";"Западный административный округ";"район Кунцево";"Молдавская улица, дом 10";"37.4363832461208";"55.7311385555791";"пластик";"1711420";
223;"Искусственная дорожная неровность по адресу Загородное шоссе, дом 11, корпус 1";"Южный административный округ";"Донской район";"Загородное шоссе, дом 11, корпус 1";"37.6049051138217";"55.6929074720496";"асфальт";"1711413";
224;"Искусственная дорожная неровность по адресу Волгоградский проспект, дом 105";"Юго-Восточный административный округ";"район Кузьминки";"Волгоградский проспект, дом 105";"37.7560690266288";"55.7070659025881";"пластик";"1711427";
225;"Искусственная дорожная неровность по адресу Автозаводская улица, дом 7";"Южный административный округ";"Даниловский район";"Автозаводская улица, дом 7";"37.6604204486113";"55.7081910281382";"пластик";"1711430";
226;"Искусственная дорожная неровность по адресу Волжский бульвар, дом 19";"Юго-Восточный административный округ";"район Кузьминки";"Волжский бульвар, дом 19";"37.7470841274627";"55.7066219742513";"пластик";"1711425";
227;"Искусственная дорожная неровность по адресу улица Бахрушина, дом 25";"Центральный административный округ";"район Замоскворечье";"улица Бахрушина, дом 25";"37.6367035201455";"55.732960223727";"пластик";"1711424";
228;"Искусственная дорожная неровность по адресу аллея Жемчуговой, дом 7А";"Восточный административный округ";"район Вешняки";"аллея Жемчуговой, дом 7А";"37.8271460567483";"55.7323588157478";"асфальт";"1711422";
229;"Искусственная дорожная неровность по адресу Полоцкая улица, дом 10";"Западный административный округ";"район Кунцево";"Полоцкая улица, дом 10";"37.4244579777734";"55.7318061997841";"пластик";"1711421";
230;"Искусственная дорожная неровность по адресу Мароновский переулок, дом 26";"Центральный административный округ";"район Якиманка";"Мароновский переулок, дом 26";"37.6092117163455";"55.7325072277189";"пластик";"1711423";
231;"Искусственная дорожная неровность по адресу Волгоградский проспект, дом 93";"Юго-Восточный административный округ";"район Кузьминки";"Волгоградский проспект, дом 93";"37.7501457018336";"55.70782132341";"пластик";"1711429";
232;"Искусственная дорожная неровность по адресу улица Петра Романова, дом 9";"Юго-Восточный административный округ";"Южнопортовый район";"улица Петра Романова, дом 9";"37.6816219307883";"55.7077810684097";"пластик";"1711428";
233;"Искусственная дорожная неровность по адресу 6-я Кожуховская улица, дом 8";"Юго-Восточный административный округ";"Южнопортовый район";"6-я Кожуховская улица, дом 8";"37.6722972699171";"55.7069788183383";"пластик";"1711426";
234;"Искусственная дорожная неровность по адресу 1-й Саратовский проезд, дом 6, корпус 1";"Юго-Восточный административный округ";"район Текстильщики";"1-й Саратовский проезд, дом 6, корпус 1";"37.7352463676004";"55.7112362951598";"пластик";"1711435";
235;"Искусственная дорожная неровность по адресу Беловежская улица, дом 21";"Западный административный округ";"Можайский район";"Беловежская улица, дом 21";"37.3916570758471";"55.7115131201418";"пластик";"1711436";
236;"Искусственная дорожная неровность по адресу Сколковское шоссе, дом 7";"Западный административный округ";"Можайский район";"Сколковское шоссе, дом 7";"37.4064003403761";"55.7125457523976";"пластик";"1711439";
237;"Искусственная дорожная неровность по адресу Волжский бульвар, дом 13";"Юго-Восточный административный округ";"Рязанский район";"Волжский бульвар, дом 13";"37.7476131947408";"55.7124520651091";"пластик";"1711438";
238;"Искусственная дорожная неровность по адресу Малая Тульская улица, дом 15";"Южный административный округ";"Даниловский район";"Малая Тульская улица, дом 15";"37.6187783159806";"55.7091301405032";"пластик";"1711433";
239;"Искусственная дорожная неровность по адресу Веерная улица, дом 3, корпус 1";"Западный административный округ";"район Очаково-Матвеевское";"Веерная улица, дом 3, корпус 1";"37.4798207813228";"55.7089555108364";"пластик";"1711432";
240;"Искусственная дорожная неровность по адресу Окская улица, дом 16, корпус 1";"Юго-Восточный административный округ";"район Кузьминки";"Окская улица, дом 16, корпус 1";"37.7561216643111";"55.7121404132053";"асфальт";"1711437";
241;"Искусственная дорожная неровность по адресу Нежинская улица, дом 10";"Западный административный округ";"район Очаково-Матвеевское";"Нежинская улица, дом 10";"37.4663074757077";"55.7082122273896";"пластик";"1711431";
242;"Искусственная дорожная неровность по адресу Окская улица, дом 20, корпус 2";"Юго-Восточный административный округ";"район Кузьминки";"Окская улица, дом 20, корпус 2";"37.7582976058132";"55.7126691689771";"асфальт";"1711440";
243;"Искусственная дорожная неровность по адресу 4-я Новокузьминская улица, дом 3";"Юго-Восточный административный округ";"Рязанский район";"4-я Новокузьминская улица, дом 3";"37.7933716792946";"55.7096547758717";"асфальт";"1711434";
244;"Искусственная дорожная неровность по адресу улица Руднёвка, дом 10";"Восточный административный округ";"район Косино-Ухтомский";"улица Руднёвка, дом 10";"37.8896767281554";"55.7164611067718";"пластик";"1711450";
245;"Искусственная дорожная неровность по адресу 1-я Новокузьминская улица, дом 10";"Юго-Восточный административный округ";"Рязанский район";"1-я Новокузьминская улица, дом 5";"37.7853470135902";"55.716131127109";"пластик";"1711449";
246;"Искусственная дорожная неровность по адресу улица Стасовой, дом 8";"Южный административный округ";"Донской район";"улица Стасовой, дом 8";"37.5952964137425";"55.7141936878709";"пластик";"1711445";
247;"Искусственная дорожная неровность по адресу 2-й Донской проезд, дом 8";"Южный административный округ";"Донской район";"2-й Донской проезд, дом 8";"37.5945795940784";"55.7134818295609";"пластик";"1711444";
248;"Искусственная дорожная неровность по адресу Восточная улица, дом 4А, строение 38";"Южный административный округ";"Даниловский район";"Восточная улица, дом 4А, строение 38";"37.6604097209302";"55.7156533295377";"пластик";"1711446";
249;"Искусственная дорожная неровность по адресу Святоозерская улица, дом 16";"Восточный административный округ";"район Косино-Ухтомский";"Святоозерская улица, дом 16";"37.8900577692444";"55.7132215806286";"пластик";"1711443";
250;"Искусственная дорожная неровность по адресу Большая Косинская улица, дом 20";"Восточный административный округ";"район Косино-Ухтомский";"Большая Косинская улица, дом 20";"37.8548202490936";"55.7131859003473";"пластик";"1711442";
251;"Искусственная дорожная неровность по адресу Красносолнечная улица, дом 40А";"Восточный административный округ";"район Косино-Ухтомский";"Красносолнечная улица, дом 40А";"37.8471063843079";"55.7158723116662";"пластик";"1711447";
252;"Искусственная дорожная неровность по адресу Мосфильмовская улица, дом 62, строение 4";"Западный административный округ";"район Раменки";"Мосфильмовская улица, дом 62, строение 4";"37.515366588906";"55.7158834708898";"пластик";"1711448";
253;"Искусственная дорожная неровность по адресу 2-й Саратовский проезд, дом 3";"Юго-Восточный административный округ";"район Текстильщики";"2-й Саратовский проезд, дом 3";"37.7401649285469";"55.712731068158";"пластик";"1711441";
254;"Искусственная дорожная неровность по адресу 3-й Голутвинский переулок, дом 10";"Центральный административный округ";"район Якиманка";"3-й Голутвинский переулок, дом 10";"37.6111590015734";"55.7388531362384";"пластик";"1711451";
255;"Искусственная дорожная неровность по адресу Новорогожская улица, дом 11, строение 1";"Центральный административный округ";"Таганский район";"Новорогожская улица, дом 11, строение 1";"37.6813309520947";"55.7420914760396";"пластик";"1711457";
256;"Искусственная дорожная неровность по адресу Большой Факельный переулок, дом 23";"Центральный административный округ";"Таганский район";"Большой Факельный переулок, дом 23";"37.6680759785992";"55.7408963997781";"пластик";"1711454";
257;"Искусственная дорожная неровность по адресу 1-й Кадашёвский переулок, дом 1А";"Центральный административный округ";"район Якиманка";"1-й Кадашёвский переулок, дом 1А";"37.6209413513869";"55.7440863393718";"пластик";"1711460";
258;"Искусственная дорожная неровность по адресу Кастанаевская улица, дом 3";"Западный административный округ";"район Филёвский Парк";"Кастанаевская улица, дом 3";"37.4974816193844";"55.7401319707151";"пластик";"1711452";
259;"Искусственная дорожная неровность по адресу Гончарная улица, дом 34";"Центральный административный округ";"Таганский район";"Гончарная улица, дом 34";"37.6500974666087";"55.7421277893199";"пластик";"1711458";
260;"Искусственная дорожная неровность по адресу улица Плеханова, дом 20";"Восточный административный округ";"район Перово";"улица Плеханова, дом 20";"37.7669894745336";"55.7429279239587";"пластик";"1711459";
261;"Искусственная дорожная неровность по адресу улица Плющева, дом 13";"Восточный административный округ";"район Перово";"улица Плющева, дом 13";"37.7612599405998";"55.7420670790547";"пластик";"1711456";
262;"Искусственная дорожная неровность по адресу Новокосинская улица, дом 26";"Восточный административный округ";"район Новокосино";"Новокосинская улица, дом 26";"37.8620920538264";"55.741336250657";"пластик";"1711455";
263;"Искусственная дорожная неровность по адресу Переведеновский переулок, дом 11";"Центральный административный округ";"Басманный район";"Переведеновский переулок, дом 11";"37.6867817046599";"55.7784860990174";"пластик";"1711465";
264;"Искусственная дорожная неровность по адресу улица Полины Осипенко, дом 18";"Северный административный округ";"Хорошёвский район";"улица Полины Осипенко, дом 18";"37.5294830575388";"55.779910633039";"пластик";"1711469";
265;"Искусственная дорожная неровность по адресу 4-й Лесной переулок, дом 6";"Центральный административный округ";"Тверской район";"4-й Лесной переулок, дом 11";"37.5874569914295";"55.7797994368356";"пластик";"1711468";
266;"Искусственная дорожная неровность по адресу Гагаринский переулок, дом 20";"Центральный административный округ";"район Хамовники";"Гагаринский переулок, дом 20";"37.5923672770956";"55.7448236426049";"пластик";"1711463";
267;"Искусственная дорожная неровность по адресу Библиотечная улица, дом 29";"Центральный административный округ";"Таганский район";"Библиотечная улица, дом 25";"37.6754894359742";"55.7446424635984";"пластик";"1711462";
268;"Искусственная дорожная неровность по адресу Перовская улица, дом 35";"Восточный административный округ";"район Перово";"Перовская улица, дом 35";"37.7779873697923";"55.7461973169066";"пластик";"1711464";
269;"Искусственная дорожная неровность по адресу Скаковая улица, дом 20";"Северный административный округ";"район Беговой";"Скаковая улица, дом 20";"37.5693421915357";"55.7802645397661";"пластик";"1711470";
270;"Искусственная дорожная неровность по адресу Измайловское шоссе, дом 13";"Восточный административный округ";"район Соколиная Гора";"Измайловское шоссе, дом 13";"37.7240981051429";"55.7792513760865";"пластик";"1711467";
271;"Искусственная дорожная неровность по адресу 3-й Лесной переулок, дом 12";"Центральный административный округ";"Тверской район";"3-й Лесной переулок, дом 12";"37.5876392155832";"55.779000441852";"пластик";"1711466";
272;"Искусственная дорожная неровность по адресу Рабочая улица, дом 10";"Центральный административный округ";"Таганский район";"Рабочая улица, дом 13";"37.6826244470521";"55.7444408570811";"пластик";"1711461";
273;"Искусственная дорожная неровность по адресу Измайловское шоссе, дом 60";"Восточный административный округ";"район Соколиная Гора";"Измайловское шоссе, дом 62";"37.7398647996138";"55.780952505358";"асфальт";"1711472";
274;"Искусственная дорожная неровность по адресу Астраханский переулок, дом 17/27, строение 2";"Центральный административный округ";"Мещанский район";"Астраханский переулок, дом 17/27, строение 2";"37.6416879051444";"55.7806334652903";"пластик";"1711471";
275;"Искусственная дорожная неровность по адресу улица Зорге, дом 10, строение 2";"Северный административный округ";"Хорошёвский район";"улица Зорге, дом 10, строение 2";"37.512964840586";"55.7825561581583";"пластик";"1711475";
276;"Искусственная дорожная неровность по адресу 2-я Леснорядская улица, дом 10";"Центральный административный округ";"Красносельский район";"2-я Леснорядская улица, дом 10";"37.6772099064743";"55.7823116733339";"пластик";"1711474";
277;"Искусственная дорожная неровность по адресу Живописная улица, дом 12, корпус 1";"Северо-Западный административный округ";"район Хорошёво-Мнёвники";"Живописная улица, дом 12, корпус 1";"37.4556416768297";"55.7843029555928";"пластик";"1711476";
278;"Искусственная дорожная неровность по адресу Большой Афанасьевский переулок, дом 27, строение 1";"Центральный административный округ";"район Арбат";"Большой Афанасьевский переулок, дом 27, строение 1";"37.5971677607862";"55.7485646000888";"пластик";"1711477";
279;"Искусственная дорожная неровность по адресу Берников переулок, дом 12";"Центральный административный округ";"Таганский район";"Берников переулок, дом 12";"37.6502927639447";"55.7488541188166";"пластик";"1711478";
280;"Искусственная дорожная неровность по адресу Союзный проспект, дом 7";"Восточный административный округ";"район Новогиреево";"Союзный проспект, дом 7";"37.8070377047962";"55.7506167152485";"пластик";"1711479";
281;"Искусственная дорожная неровность по адресу Союзный проспект, дом 2";"Восточный административный округ";"район Новогиреево";"Союзный проспект, дом 3";"37.8040881135102";"55.7510521041736";"пластик";"1711480";
282;"Искусственная дорожная неровность по адресу улица Ибрагимова, дом 5";"Восточный административный округ";"район Соколиная Гора";"улица Ибрагимова, дом 7";"37.7308101642323";"55.7809782965569";"пластик";"1711473";
283;"Искусственная дорожная неровность по адресу Физкультурный проезд, дом 6";"Западный административный округ";"район Филёвский Парк";"Физкультурный проезд, дом 6";"37.5010114073595";"55.7512914888627";"пластик";"1711481";
284;"Искусственная дорожная неровность по адресу Большой Спасоглинищевский переулок, дом 10";"Центральный административный округ";"Басманный район";"Большой Спасоглинищевский переулок, дом 10";"37.6354651781533";"55.7554482584244";"пластик";"1711488";
285;"Искусственная дорожная неровность по адресу Крылатская улица, дом 5";"Западный административный округ";"район Крылатское";"Крылатская улица, дом 5";"37.4326311727235";"55.7538993512562";"пластик";"1711485";
286;"Искусственная дорожная неровность по адресу улица Большая Молчановка, дом 26-28";"Центральный административный округ";"район Арбат";"улица Большая Молчановка, дом 26";"37.590034090893";"55.7532875844932";"пластик";"1711483";
287;"Искусственная дорожная неровность по адресу улица Крылатские Холмы, дом 15, корпус 1";"Западный административный округ";"район Крылатское";"улица Крылатские Холмы, дом 15, корпус 1";"37.4190695889502";"55.7517313115474";"пластик";"1711482";
288;"Искусственная дорожная неровность по адресу Поварская улица, дом 14";"Центральный административный округ";"район Арбат";"Поварская улица, дом 14";"37.5965178278815";"55.7537671879013";"пластик";"1711484";
289;"Искусственная дорожная неровность по адресу 3-я Владимирская улица, дом 26А";"Восточный административный округ";"район Перово";"3-я Владимирская улица, дом 26А";"37.7858593165085";"55.7555254955684";"пластик";"1711489";
290;"Искусственная дорожная неровность 1 по адресу Мантулинская улица, дом 16";"Центральный административный округ";"Пресненский район";"Мантулинская улица, дом 16";"37.55193314496";"55.7560993195084";"пластик";"1711490";
291;"Искусственная дорожная неровность 1 по адресу Большой Трёхсвятительский переулок, дом 4";"Центральный административный округ";"Басманный район";"Большой Трёхсвятительский переулок, дом 4";"37.6460168200233";"55.7551534949392";"пластик";"1711487";
292;"Искусственная дорожная неровность по адресу Калашный переулок, дом 3";"Центральный административный округ";"Пресненский район";"Калашный переулок, дом 3";"37.6018839223161";"55.7544121228575";"пластик";"1711486";
293;"Искусственная дорожная неровность по адресу Большой Казённый переулок, дом 9";"Центральный административный округ";"Басманный район";"Большой Казённый переулок, дом 9";"37.6556338825194";"55.760167381314";"пластик";"1711498";
294;"Искусственная дорожная неровность по адресу Большой Трёхгорный переулок, дом 3";"Центральный административный округ";"Пресненский район";"Большой Трёхгорный переулок, дом 3";"37.5639179248983";"55.7597860665636";"пластик";"1711497";
295;"Искусственная дорожная неровность по адресу Колпачный переулок, дом 3";"Центральный административный округ";"Басманный район";"Колпачный переулок, дом 3";"37.6431297595659";"55.7584400072228";"пластик";"1711495";
296;"Искусственная дорожная неровность 2 по адресу Мантулинская улица, дом 16";"Центральный административный округ";"Пресненский район";"Мантулинская улица, дом 16";"37.5522524960435";"55.7561587800901";"пластик";"1711491";
297;"Искусственная дорожная неровность по адресу улица Металлургов, дом 60, корпус 1";"Восточный административный округ";"район Перово";"улица Металлургов, дом 60, корпус 1";"37.8073376100487";"55.760402843437";"пластик";"1711499";
298;"Искусственная дорожная неровность по адресу Новогиреевская улица, дом 22А";"Восточный административный округ";"район Перово";"Новогиреевская улица, дом 22А";"37.7931205597485";"55.7569129689512";"пластик";"1711492";
299;"Искусственная дорожная неровность по адресу 2-я Звенигородская улица, дом 8";"Центральный административный округ";"Пресненский район";"2-я Звенигородская улица, дом 8";"37.5549504620319";"55.7595068386155";"пластик";"1711496";
300;"Искусственная дорожная неровность по адресу 3-я Владимирская улица, дом 5";"Восточный административный округ";"район Перово";"3-я Владимирская улица, дом 5";"37.7857988014994";"55.762101867543";"пластик";"1711501";
301;"Искусственная дорожная неровность по адресу Большой Предтеченский переулок, дом 23";"Центральный административный округ";"Пресненский район";"Большой Предтеченский переулок, дом 23";"37.5649421929684";"55.7604690996776";"пластик";"1711500";
302;"Искусственная дорожная неровность по адресу улица Сталеваров, дом 14, корпус 1";"Восточный административный округ";"район Ивановское";"улица Сталеваров, дом 14, корпус 1";"37.839636099508";"55.758206242242";"пластик";"1711494";
303;"Искусственная дорожная неровность по адресу Большой Козихинский переулок, дом 5";"Центральный административный округ";"Пресненский район";"Большой Козихинский переулок, дом 5";"37.5980899380192";"55.7621542269381";"пластик";"1711502";
304;"Искусственная дорожная неровность по адресу Крылатская улица, дом 10, строение 3";"Западный административный округ";"район Крылатское";"Крылатская улица, дом 10, строение 3";"37.4307732950192";"55.7622200480707";"пластик";"1711510";
305;"Искусственная дорожная неровность по адресу улица Алексея Дикого, дом 18А";"Восточный административный округ";"район Новогиреево";"улица Алексея Дикого, дом 18А";"37.8099346575014";"55.7465566370373";"асфальт";"1711503";
306;"Искусственная дорожная неровность по адресу Малый Знаменский переулок, дом 7/10";"Центральный административный округ";"район Хамовники";"Малый Знаменский переулок, дом 7/10";"37.6049779330553";"55.7482850637728";"пластик";"1711508";
307;"Искусственная дорожная неровность по адресу Перовская улица, дом 24";"Восточный административный округ";"район Перово";"Перовская улица, дом 24";"37.7702693134675";"55.7466317145889";"пластик";"1711504";
308;"Искусственная дорожная неровность по адресу Утренняя улица, дом 47";"Восточный административный округ";"район Перово";"Утренняя улица, дом 47";"37.7851321024383";"55.7467265556245";"пластик";"1711505";
309;"Искусственная дорожная неровность по адресу Староконюшенный переулок, дом 18";"Центральный административный округ";"район Хамовники";"Староконюшенный переулок, дом 18";"37.5951462136304";"55.7469224732741";"пластик";"1711506";
310;"Искусственная дорожная неровность по адресу улица Академика Павлова, дом 21";"Западный административный округ";"район Кунцево";"улица Академика Павлова, дом 21";"37.4053204162843";"55.746940246689";"пластик";"1711507";
311;"Искусственная дорожная неровность по адресу улица Сталеваров, дом 10А";"Восточный административный округ";"район Ивановское";"улица Сталеваров, дом 10А";"37.8399661800693";"55.7622073514658";"пластик";"1711509";
312;"Искусственная дорожная неровность по адресу 5-я улица Соколиной Горы, дом 14";"Восточный административный округ";"район Соколиная Гора";"5-я улица Соколиной Горы, дом 14";"37.7370297040008";"55.7638179243099";"пластик";"1711513";
313;"Искусственная дорожная неровность по адресу 5-я улица Соколиной Горы, дом 6";"Восточный административный округ";"район Соколиная Гора";"5-я улица Соколиной Горы, дом 6";"37.7329909683149";"55.7625379768647";"пластик";"1711512";
314;"Искусственная дорожная неровность по адресу улица Климашкина, дом 13";"Центральный административный округ";"Пресненский район";"улица Климашкина, дом 13";"37.5695733630926";"55.7677784768528";"пластик";"1711516";
315;"Искусственная дорожная неровность по адресу Осенняя улица, дом 23";"Западный административный округ";"район Крылатское";"Осенняя улица, дом 23";"37.4048227002095";"55.7666548797748";"пластик";"1711515";
316;"Искусственная дорожная неровность по адресу Большой Тишинский переулок, дом 39";"Центральный административный округ";"Пресненский район";"Большой Тишинский переулок, дом 39";"37.569792298697";"55.7693225749571";"пластик";"1711521";
317;"Искусственная дорожная неровность по адресу Просвирин переулок, дом 5";"Центральный административный округ";"Красносельский район";"Просвирин переулок, дом 5";"37.6330074369433";"55.7688055519594";"пластик";"1711518";
318;"Искусственная дорожная неровность по адресу Большой Тишинский переулок, дом 1, строение 3";"Центральный административный округ";"Пресненский район";"Большой Тишинский переулок, дом 1, строение 3";"37.5780229912152";"55.7688049834603";"пластик";"1711517";
319;"Искусственная дорожная неровность по адресу Старопименовский переулок, дом 5";"Центральный административный округ";"Тверской район";"Старопименовский переулок, дом 6";"37.6010363456758";"55.76904511573";"пластик";"1711519";
320;"Искусственная дорожная неровность по адресу Кондрашёвский тупик, дом 3А, строение 2";"Центральный административный округ";"Басманный район";"Кондрашёвский тупик, дом 3А, строение 2";"37.6877746251199";"55.7692049217892";"пластик";"1711520";
321;"Искусственная дорожная неровность по адресу Гороховский переулок, дом 10";"Центральный административный округ";"Басманный район";"Гороховский переулок, дом 10";"37.6657582146734";"55.7650099318278";"пластик";"1711514";
322;"Искусственная дорожная неровность по адресу Лефортовский переулок, дом 8";"Центральный административный округ";"Басманный район";"Лефортовский переулок, дом 8";"37.6780041743907";"55.7698895832971";"пластик";"1711524";
323;"Искусственная дорожная неровность по адресу Селивёрстов переулок, дом 8";"Центральный административный округ";"Красносельский район";"Селивёрстов переулок, дом 8";"37.6342196289776";"55.7698649171787";"асфальт";"1711523";
324;"Искусственная дорожная неровность по адресу улица Госпитальный Вал, дом 2";"Юго-Восточный административный округ";"район Лефортово";"улица Госпитальный Вал, дом 2";"37.7019853036698";"55.7697412174682";"асфальт";"1711522";
325;"Искусственная дорожная неровность по адресу улица Бориса Жигулёнкова, дом 15";"Восточный административный округ";"район Соколиная Гора";"улица Бориса Жигулёнкова, дом 15";"37.732828693947";"55.7729208532746";"пластик";"1711531";
326;"Искусственная дорожная неровность по адресу Средний Кондратьевский переулок, дом 8";"Центральный административный округ";"Пресненский район";"Средний Кондратьевский переулок, дом 8";"37.5787867505478";"55.7722601491668";"пластик";"1711528";
327;"Искусственная дорожная неровность по адресу Сретенский тупик, дом 5";"Центральный административный округ";"Красносельский район";"Сретенский тупик, дом 5";"37.6340734470297";"55.7711808163577";"пластик";"1711527";
328;"Искусственная дорожная неровность по адресу Госпитальный переулок, дом 4";"Центральный административный округ";"Басманный район";"Госпитальный переулок, дом 4";"37.6872039847087";"55.7706685431445";"пластик";"1711526";
329;"Искусственная дорожная неровность по адресу Большой Кондратьевский переулок, дом 3";"Центральный административный округ";"Пресненский район";"Большой Кондратьевский переулок, дом 3";"37.5828177759937";"55.7725548778465";"пластик";"1711530";
330;"Искусственная дорожная неровность по адресу Даев переулок, дом 4";"Центральный административный округ";"Красносельский район";"Даев переулок, дом 2";"37.634392295955";"55.7705347327089";"пластик";"1711525";
331;"Искусственная дорожная неровность по адресу Большой Каретный переулок, дом 22";"Центральный административный округ";"Тверской район";"Большой Каретный переулок, дом 22";"37.6160253668087";"55.7723647552113";"пластик";"1711529";
332;"Искусственная дорожная неровность по адресу улица Зорге, дом 4";"Северный административный округ";"Хорошёвский район";"улица Зорге, дом 2";"37.5133924853736";"55.7784264789845";"пластик";"1711541";
333;"Искусственная дорожная неровность по адресу Делегатская улица, дом 14";"Центральный административный округ";"Тверской район";"Делегатская улица, дом 14";"37.6136950300621";"55.7753241153472";"пластик";"1711535";
334;"Искусственная дорожная неровность по адресу улица Мнёвники, дом 14, корпус 1";"Северо-Западный административный округ";"район Хорошёво-Мнёвники";"улица Мнёвники, дом 14, корпус 1";"37.4853939104808";"55.7738091689199";"пластик";"1711534";
335;"Искусственная дорожная неровность по адресу Рубцов переулок, дом 10/14";"Центральный административный округ";"Басманный район";"Рубцов переулок, дом 10/14";"37.6921322088327";"55.7732100002338";"пластик";"1711533";
336;"Искусственная дорожная неровность по адресу Вольная улица, дом 5Б";"Восточный административный округ";"район Соколиная Гора";"Вольная улица, дом 4";"37.7259525162485";"55.7761380220079";"пластик";"1711537";
337;"Искусственная дорожная неровность по адресу улица Мнёвники, дом 5";"Северо-Западный административный округ";"район Хорошёво-Мнёвники";"улица Мнёвники, дом 5";"37.4969331098685";"55.7730249810689";"пластик";"1711532";
338;"Искусственная дорожная неровность по адресу улица Гиляровского, дом 15";"Центральный административный округ";"Мещанский район";"улица Гиляровского, дом 15";"37.6303839026644";"55.7760191581428";"пластик";"1711536";
339;"Искусственная дорожная неровность по адресу Новокосинская улица, дом 10";"Восточный административный округ";"район Новокосино";"Новокосинская улица, дом 10";"37.8548574671942";"55.7340077073269";"пластик";"1711542";
340;"Искусственная дорожная неровность по адресу Карамышевская набережная, дом 15";"Северо-Западный административный округ";"район Хорошёво-Мнёвники";"Карамышевская набережная, дом 15";"37.4564272283929";"55.7770525300095";"пластик";"1711539";
341;"Искусственная дорожная неровность по адресу Малая Филёвская улица, дом 10, корпус 1";"Западный административный округ";"район Фили-Давыдково";"Малая Филёвская улица, дом 10, корпус 1";"37.474740845222";"55.7384688690324";"пластик";"1711552";
342;"Искусственная дорожная неровность по адресу Перовское шоссе, дом 8";"Юго-Восточный административный округ";"Нижегородский район";"Перовское шоссе, дом 8";"37.745498945041";"55.7355207030575";"пластик";"1711546";
343;"Искусственная дорожная неровность по адресу Звенигородская улица, дом 7";"Западный административный округ";"район Фили-Давыдково";"Звенигородская улица, дом 7";"37.4471011850145";"55.7350552508226";"пластик";"1711545";
344;"Искусственная дорожная неровность по адресу 1-й Новокузнецкий переулок, дом 10А";"Центральный административный округ";"район Замоскворечье";"1-й Новокузнецкий переулок, дом 10А";"37.6304226254431";"55.7348633369619";"пластик";"1711544";
345;"Искусственная дорожная неровность по адресу Бобруйская улица, дом 7";"Западный административный округ";"район Кунцево";"Бобруйская улица, дом 7";"37.4007130524134";"55.7366159664525";"пластик";"1711548";
346;"Искусственная дорожная неровность по адресу Ельнинская улица, дом 10";"Западный административный округ";"район Кунцево";"Ельнинская улица, дом 3";"37.4265938535154";"55.7364489356792";"пластик";"1711547";
347;"Искусственная дорожная неровность по адресу улица Полосухина, дом 3";"Западный административный округ";"район Фили-Давыдково";"улица Полосухина, дом 3";"37.4607740808313";"55.7366483141905";"пластик";"1711549";
348;"Искусственная дорожная неровность по адресу Реутовская улица, дом 16А";"Восточный административный округ";"район Вешняки";"Реутовская улица, дом 16А";"37.8379157960945";"55.7347045291573";"асфальт";"1711543";
349;"Искусственная дорожная неровность по адресу Салтыковская улица, дом 15";"Восточный административный округ";"район Новокосино";"Салтыковская улица, дом 15";"37.8661423580165";"55.7367563329857";"асфальт";"1711550";
350;"Искусственная дорожная неровность по адресу Подъёмная улица, дом 1";"Юго-Восточный административный округ";"Нижегородский район";"Подъёмная улица, дом 1";"37.7051989223941";"55.7377888582652";"пластик";"1711551";
351;"Искусственная дорожная неровность по адресу улица 1812 Года, дом 7";"Западный административный округ";"район Дорогомилово";"улица 1812 Года, дом 7";"37.5216935851488";"55.7385579611099";"пластик";"1711553";
352;"Искусственная дорожная неровность по адресу Басовская улица, дом 7";"Юго-Восточный административный округ";"Нижегородский район";"Басовская улица, дом 7";"37.7408977840372";"55.7386129146173";"асфальт";"1711554";
353;"Искусственная дорожная неровность по адресу Ленинградский проспект, дом 49";"Северный административный округ";"Хорошёвский район";"Ленинградский проспект, дом 49";"37.5293013382383";"55.7999853919313";"пластик";"1711556";
354;"Искусственная дорожная неровность по адресу Зельев переулок, дом 3";"Восточный административный округ";"район Преображенское";"Зельев переулок, дом 3";"37.7199386700188";"55.8014770335889";"пластик";"1711561";
355;"Искусственная дорожная неровность по адресу улица Олений Вал, дом 24";"Восточный административный округ";"район Сокольники";"улица Олений Вал, дом 24";"37.6921670787371";"55.8001484697908";"пластик";"1711557";
356;"Искусственная дорожная неровность по адресу Живописная улица, дом 48";"Северо-Западный административный округ";"район Щукино";"Живописная улица, дом 48";"37.4504708824262";"55.8008636482154";"пластик";"1711559";
357;"Искусственная дорожная неровность по адресу улица Гамалеи, дом 17";"Северо-Западный административный округ";"район Щукино";"улица Гамалеи, дом 17";"37.457869252596";"55.8003410022054";"пластик";"1711558";
358;"Искусственная дорожная неровность по адресу 1-й Волоколамский проезд, дом 9";"Северо-Западный административный округ";"район Щукино";"1-й Волоколамский проезд, дом 9";"37.4917772346852";"55.8014977080896";"пластик";"1711562";
359;"Искусственная дорожная неровность по адресу 1-я Аэропортовская улица, дом 6";"Северный административный округ";"район Аэропорт";"1-я Аэропортовская улица, дом 6";"37.5363059274117";"55.8012878987864";"пластик";"1711560";
360;"Искусственная дорожная неровность по адресу улица Барболина, дом 9, строение 1";"Восточный административный округ";"район Сокольники";"улица Барболина, дом 9, строение 1";"37.6850288813349";"55.7882355452111";"пластик";"1711572";
361;"Искусственная дорожная неровность по адресу улица Маршала Василевского, дом 3, корпус 2";"Северо-Западный административный округ";"район Щукино";"улица Маршала Василевского, дом 3, корпус 2";"37.4719773363539";"55.8020016430617";"пластик";"1711563";
362;"Искусственная дорожная неровность по адресу Малая Семёновская улица, дом 5, строение 1";"Восточный административный округ";"район Соколиная Гора";"Малая Семёновская улица, дом 5, строение 1";"37.7074974120672";"55.7845668965784";"пластик";"1711568";
363;"Искусственная дорожная неровность по адресу улица Маршала Новикова, дом 13";"Северо-Западный административный округ";"район Щукино";"улица Маршала Новикова, дом 13";"37.4641404248321";"55.8038045962292";"пластик";"1711567";
364;"Искусственная дорожная неровность по адресу улица Генерала Глаголева, дом 25, корпус 1";"Северо-Западный административный округ";"район Хорошёво-Мнёвники";"улица Генерала Глаголева, дом 25, корпус 1";"37.4651294897228";"55.7878731128151";"пластик";"1711571";
365;"Искусственная дорожная неровность по адресу 3-я Мытищинская улица, дом 12, строение 1";"Северо-Восточный административный округ";"Алексеевский район";"3-я Мытищинская улица, дом 12, строение 1";"37.6445203192864";"55.8031858730043";"пластик";"1711565";
366;"Искусственная дорожная неровность по адресу Кучин переулок, дом 14, строение 1";"Северо-Восточный административный округ";"Алексеевский район";"Кучин переулок, дом 14, строение 1";"37.6387078043765";"55.8037931743555";"пластик";"1711566";
367;"Искусственная дорожная неровность по адресу Красноармейская улица, дом 21";"Северный административный округ";"район Аэропорт";"Красноармейская улица, дом 21";"37.5379694007053";"55.8024314527671";"пластик";"1711564";
368;"Искусственная дорожная неровность по адресу Новосущёвская улица, дом 7";"Северо-Восточный административный округ";"район Марьина Роща";"Новосущёвская улица, дом 9";"37.6038794866006";"55.7875740642791";"пластик";"1711570";
369;"Искусственная дорожная неровность по адресу Переяславский переулок, дом 5";"Центральный административный округ";"Мещанский район";"Переяславский переулок, дом 5";"37.6360691810958";"55.787488580362";"пластик";"1711569";
370;"Искусственная дорожная неровность по адресу Лечебная улица, дом 20";"Восточный административный округ";"район Соколиная Гора";"Лечебная улица, дом 20";"37.740965512518";"55.7903703787059";"пластик";"1711576";
371;"Искусственная дорожная неровность по адресу улица Маршала Бирюзова, дом 4";"Северо-Западный административный округ";"район Щукино";"улица Маршала Бирюзова, дом 4";"37.4978837861539";"55.7912406327994";"пластик";"1711578";
372;"Искусственная дорожная неровность по адресу Малая Переяславская улица, дом 6/8";"Центральный административный округ";"Мещанский район";"Малая Переяславская улица, дом 6";"37.6372959554821";"55.7894604288176";"пластик";"1711573";
373;"Искусственная дорожная неровность по адресу Вадковский переулок, дом 3";"Центральный административный округ";"Тверской район";"Вадковский переулок, дом 3";"37.597681070716";"55.7902791367425";"пластик";"1711575";
374;"Искусственная дорожная неровность по адресу Измайловское шоссе, дом 71А";"Восточный административный округ";"район Измайлово";"Измайловское шоссе, дом 71А";"37.751685295653";"55.7896942387516";"пластик";"1711574";
375;"Искусственная дорожная неровность 2 по адресу Часовая улица, дом 19А";"Северный административный округ";"район Аэропорт";"Часовая улица, дом 19А";"37.5245430996205";"55.8099721467387";"пластик";"1711582";
376;"Искусственная дорожная неровность по адресу улица Девятая Рота, дом 14";"Восточный административный округ";"район Преображенское";"улица Девятая Рота, дом 14";"37.7124388791552";"55.7913215787739";"пластик";"1711580";
377;"Искусственная дорожная неровность по адресу Нижняя Первомайская улица, дом 14";"Восточный административный округ";"район Измайлово";"Нижняя Первомайская улица, дом 14";"37.796398557136";"55.791021705711";"асфальт";"1711577";
378;"Искусственная дорожная неровность по адресу улица Маршала Василевского, дом 3, корпус 1";"Северо-Западный административный округ";"район Щукино";"улица Маршала Василевского, дом 3, корпус 1";"37.4729858470756";"55.8039716208695";"асфальт";"1711581";
379;"Искусственная дорожная неровность по адресу Нижняя Первомайская улица, дом 51";"Восточный административный округ";"район Восточное Измайлово";"Нижняя Первомайская улица, дом 51";"37.8120358349173";"55.791261322836";"асфальт";"1711579";
380;"Искусственная дорожная неровность по адресу Новосибирская улица, дом 8";"Восточный административный округ";"район Гольяново";"Новосибирская улица, дом 8";"37.8206519307435";"55.8150876012995";"пластик";"1711588";
381;"Искусственная дорожная неровность по адресу улица Гончарова, дом 15";"Северо-Восточный административный округ";"Бутырский район";"улица Гончарова, дом 15";"37.5870861785583";"55.8152948746696";"пластик";"1711591";
382;"Искусственная дорожная неровность по адресу Маломосковская улица, дом 2, корпус 1";"Северо-Восточный административный округ";"Алексеевский район";"Маломосковская улица, дом 2, корпус 1";"37.6409154303569";"55.8135178538206";"пластик";"1711586";
383;"Искусственная дорожная неровность по адресу улица Павла Корчагина, дом 1А";"Северо-Восточный административный округ";"Алексеевский район";"улица Павла Корчагина, дом 4";"37.6562915292575";"55.8132118265571";"пластик";"1711584";
384;"Искусственная дорожная неровность по адресу Прудовой проезд, дом 9";"Северо-Восточный административный округ";"Останкинский район";"Прудовой проезд, дом 9";"37.6161747350809";"55.8152334313467";"пластик";"1711590";
385;"Искусственная дорожная неровность по адресу Ивантеевская улица, дом 32А";"Восточный административный округ";"район Богородское";"Ивантеевская улица, дом 32А";"37.7289250774563";"55.8133354756128";"асфальт";"1711585";
386;"Искусственная дорожная неровность по адресу Бойцовая улица, дом 25";"Восточный административный округ";"район Богородское";"Бойцовая улица, дом 25";"37.7233519491965";"55.8151187488297";"пластик";"1711589";
387;"Искусственная дорожная неровность по адресу улица Гончарова, дом 6";"Северо-Восточный административный округ";"Бутырский район";"улица Гончарова, дом 6";"37.5897388829311";"55.815330086619";"пластик";"1711592";
388;"Искусственная дорожная неровность по адресу Астрадамский проезд, дом 5А";"Северный административный округ";"Тимирязевский район";"Астрадамский проезд, дом 5А";"37.5607597942108";"55.8118457157832";"пластик";"1711583";
389;"Искусственная дорожная неровность по адресу улица Исаковского, дом 14";"Северо-Западный административный округ";"район Строгино";"улица Исаковского, дом 14";"37.4093348498467";"55.8135330473812";"пластик";"1711587";
390;"Искусственная дорожная неровность по адресу Егерская улица, дом 4";"Восточный административный округ";"район Сокольники";"Егерская улица, дом 4";"37.6839595187358";"55.7935521000361";"асфальт";"1711599";
391;"Искусственная дорожная неровность по адресу Полтавская улица, дом 2";"Северный административный округ";"Савёловский район";"Полтавская улица, дом 2";"37.5741408300867";"55.7922789871573";"пластик";"1711596";
392;"Искусственная дорожная неровность по адресу улица Сальвадора Альенде, дом 9";"Северный административный округ";"район Сокол";"улица Сальвадора Альенде, дом 9";"37.5065469860404";"55.7943485256427";"пластик";"1711602";
393;"Искусственная дорожная неровность по адресу Измайловское шоссе, дом 71, строение 12";"Восточный административный округ";"район Измайлово";"Измайловское шоссе, дом 71, строение 12";"37.7521520009858";"55.7919302757405";"пластик";"1711595";
394;"Искусственная дорожная неровность по адресу улица Маршала Бирюзова, дом 4, корпус 3";"Северо-Западный административный округ";"район Щукино";"улица Маршала Бирюзова, дом 4, корпус 3";"37.5002441302242";"55.7918088313412";"пластик";"1711594";
395;"Искусственная дорожная неровность по адресу улица Гончарова, дом 17, корпус 1";"Северо-Восточный административный округ";"Бутырский район";"улица Гончарова, дом 17, корпус 1";"37.5891595261667";"55.8155685144481";"пластик";"1711593";
396;"Искусственная дорожная неровность по адресу Живописная улица, дом 36";"Северо-Западный административный округ";"район Щукино";"Живописная улица, дом 36";"37.4545434801067";"55.7941715414497";"пластик";"1711600";
397;"Искусственная дорожная неровность по адресу 1-я улица Бебеля, дом 3";"Северный административный округ";"Савёловский район";"1-я улица Бебеля, дом 2А, сооружение 1";"37.5730059219129";"55.7933045632202";"пластик";"1711597";
398;"Искусственная дорожная неровность по адресу 4-я улица Марьиной Рощи, дом 4";"Северо-Восточный административный округ";"район Марьина Роща";"4-я улица Марьиной Рощи, дом 4";"37.6241033439319";"55.7942897863638";"пластик";"1711601";
399;"Искусственная дорожная неровность по адресу 4-я улица Марьиной Рощи, дом 1";"Северо-Восточный административный округ";"район Марьина Роща";"4-я улица Марьиной Рощи, дом 1";"37.6241033439319";"55.7934798504704";"пластик";"1711598";
400;"Искусственная дорожная неровность по адресу Петровско-Разумовский проезд, дом 9";"Северный административный округ";"Савёловский район";"Петровско-Разумовский проезд, дом 9";"37.5686671138879";"55.7963082220309";"пластик";"1711606";
401;"Искусственная дорожная неровность по адресу Октябрьская улица, дом 81";"Северо-Восточный административный округ";"район Марьина Роща";"Октябрьская улица, дом 81";"37.6128432618828";"55.7959390697244";"пластик";"1711605";
402;"Искусственная дорожная неровность по адресу Вятская улица, дом 29";"Северный административный округ";"Савёловский район";"Вятская улица, дом 29";"37.5820650812104";"55.7978262542074";"пластик";"1711611";
403;"Искусственная дорожная неровность по адресу Большая Черкизовская улица, дом 30, корпус 5";"Восточный административный округ";"район Преображенское";"Большая Черкизовская улица, дом 30, корпус 5";"37.7412402703325";"55.7966567871978";"пластик";"1711607";
404;"Искусственная дорожная неровность по адресу Большая Остроумовская улица, дом 19";"Восточный административный округ";"район Сокольники";"Большая Остроумовская улица, дом 19";"37.6883456006027";"55.7954572499679";"пластик";"1711603";
405;"Искусственная дорожная неровность по адресу Петровско-Разумовская аллея, дом 24А";"Северный административный округ";"район Аэропорт";"Петровско-Разумовская аллея, дом 24А";"37.554451742539";"55.7975405847501";"пластик";"1711609";
406;"Искусственная дорожная неровность по адресу 2-я Пугачёвская улица, дом 6";"Восточный административный округ";"район Преображенское";"2-я Пугачёвская улица, дом 6";"37.7292816430471";"55.7955701053081";"пластик";"1711604";
407;"Искусственная дорожная неровность по адресу Писцовая улица, дом 14А";"Северный административный округ";"Савёловский район";"Писцовая улица, дом 14А";"37.5738602044768";"55.7976381439062";"пластик";"1711610";
408;"Искусственная дорожная неровность по адресу Никитинская улица, дом 7";"Восточный административный округ";"район Измайлово";"Никитинская улица, дом 7";"37.7751060091455";"55.7971401044844";"пластик";"1711608";
409;"Искусственная дорожная неровность по адресу Колодезный переулок, дом 2А";"Восточный административный округ";"район Сокольники";"Колодезный переулок, дом 2А";"37.6963997723709";"55.7985756652306";"пластик";"1711612";
410;"Искусственная дорожная неровность по адресу Байкальская улица, дом 44";"Восточный административный округ";"район Гольяново";"Байкальская улица, дом 44";"37.8159431443821";"55.8172417204856";"пластик";"1711618";
411;"Искусственная дорожная неровность по адресу улица Исаковского, дом 28, корпус 1";"Северо-Западный административный округ";"район Строгино";"улица Исаковского, дом 28, корпус 1";"37.4160259395624";"55.8042680580286";"пластик";"1711622";
412;"Искусственная дорожная неровность по адресу улица Кулакова, дом 2, корпус 1";"Северо-Западный административный округ";"район Строгино";"улица Кулакова, дом 2, корпус 1";"37.400439471392";"55.8156247671505";"пластик";"1711615";
413;"Искусственная дорожная неровность по адресу Байкальская улица, дом 29";"Восточный административный округ";"район Гольяново";"Байкальская улица, дом 29";"37.8074055056162";"55.8170058542047";"асфальт";"1711617";
414;"Искусственная дорожная неровность по адресу улица Годовикова, дом 4, строение 2";"Северо-Восточный административный округ";"Останкинский район";"улица Годовикова, дом 4, строение 2";"37.6312058341999";"55.8040741611691";"пластик";"1711620";
415;"Искусственная дорожная неровность по адресу улица Маршала Рыбалко, дом 14";"Северо-Западный административный округ";"район Щукино";"улица Маршала Рыбалко, дом 14";"37.4866275605723";"55.7987342105532";"пластик";"1711613";
416;"Искусственная дорожная неровность по адресу улица Гончарова, дом 17Б";"Северо-Восточный административный округ";"Бутырский район";"улица Гончарова, дом 17Б";"37.5880008126379";"55.8169792303679";"пластик";"1711616";
417;"Искусственная дорожная неровность по адресу улица Академика Ильюшина, дом 8";"Северный административный округ";"район Аэропорт";"улица Академика Ильюшина, дом 8";"37.5411250179068";"55.8042397674742";"пластик";"1711621";
418;"Искусственная дорожная неровность по адресу 3-я Новоостанкинская улица, дом 4";"Северо-Восточный административный округ";"Останкинский район";"3-я Новоостанкинская улица, дом 4";"37.6249750627954";"55.8174232193659";"пластик";"1711619";
419;"Искусственная дорожная неровность по адресу Верхняя Первомайская улица, дом 47";"Восточный административный округ";"район Измайлово";"Верхняя Первомайская улица, дом 47";"37.7962795357508";"55.7992797356446";"пластик";"1711614";
420;"Искусственная дорожная неровность по адресу улица Гончарова, дом 17, корпус 2";"Северо-Восточный административный округ";"Бутырский район";"улица Гончарова, дом 17, корпус 2";"37.5881402868655";"55.8164597270313";"пластик";"1711630";
421;"Искусственная дорожная неровность по адресу улица Маршала Катукова, дом 23";"Северо-Западный административный округ";"район Строгино";"улица Маршала Катукова, дом 23";"37.4132113111648";"55.805241703539";"пластик";"1711624";
422;"Искусственная дорожная неровность по адресу 2-й Хуторской переулок, дом 15";"Северный административный округ";"Савёловский район";"2-й Хуторской переулок, дом 15";"37.5768543890318";"55.8061355173165";"пластик";"1711626";
423;"Искусственная дорожная неровность по адресу улица Врубеля, дом 6";"Северный административный округ";"район Сокол";"улица Врубеля, дом 6";"37.500869420544";"55.8051071646488";"пластик";"1711623";
424;"Искусственная дорожная неровность по адресу 5-я Парковая улица, дом 60";"Восточный административный округ";"район Северное Измайлово";"5-я Парковая улица, дом 60";"37.7876057743715";"55.805883439574";"пластик";"1711625";
425;"Искусственная дорожная неровность по адресу улица Гончарова, дом 13А";"Северо-Восточный административный округ";"Бутырский район";"улица Гончарова, дом 13А";"37.5861661815365";"55.8167798874008";"пластик";"1711631";
426;"Искусственная дорожная неровность по адресу Миллионная улица, дом 5/7";"Восточный административный округ";"район Богородское";"Миллионная улица, дом 5/7";"37.6982204894669";"55.8159137900442";"пластик";"1711628";
427;"Искусственная дорожная неровность по адресу 2-я Новоостанкинская улица, дом 10А";"Северо-Восточный административный округ";"Останкинский район";"2-я Новоостанкинская улица, дом 10А";"37.6259701625683";"55.8158773582047";"пластик";"1711627";
428;"Искусственная дорожная неровность по адресу бульвар Маршала Рокоссовского, дом 34";"Восточный административный округ";"район Богородское";"бульвар Маршала Рокоссовского, дом 34/2";"37.7148498495799";"55.8169677174745";"пластик";"1711632";
429;"Искусственная дорожная неровность по адресу Огородный проезд, дом 18";"Северо-Восточный административный округ";"Бутырский район";"Огородный проезд, дом 18";"37.5980240600679";"55.8163112568648";"пластик";"1711629";
430;"Искусственная дорожная неровность по адресу Поперечный просек, дом 17, строение 40";"Восточный административный округ";"район Сокольники";"Поперечный просек, дом 17, строение 40";"37.6669113990716";"55.8063721153731";"пластик";"1711633";
431;"Искусственная дорожная неровность по адресу Алымов переулок, дом 15";"Восточный административный округ";"район Богородское";"Алымов переулок, дом 15";"37.713083279336";"55.8072534388469";"асфальт";"1711637";
432;"Искусственная дорожная неровность по адресу 3-я Гражданская улица, дом 64";"Восточный административный округ";"район Богородское";"3-я Гражданская улица, дом 64";"37.712830313752";"55.809035000774";"пластик";"1711642";
433;"Искусственная дорожная неровность по адресу 13-я Парковая улица, дом 32";"Восточный административный округ";"район Северное Измайлово";"13-я Парковая улица, дом 32";"37.8118554576998";"55.8065202493692";"пластик";"1711634";
434;"Искусственная дорожная неровность по адресу 5-я Парковая улица, дом 62";"Восточный административный округ";"район Северное Измайлово";"5-я Парковая улица, дом 62";"37.7875479390369";"55.8075402552039";"пластик";"1711640";
435;"Искусственная дорожная неровность по адресу 1-я Гражданская улица, дом 96";"Восточный административный округ";"район Богородское";"1-я Гражданская улица, дом 96";"37.7096770429501";"55.8074405576534";"пластик";"1711638";
436;"Искусственная дорожная неровность по адресу 11-я Парковая улица, дом 50";"Восточный административный округ";"район Северное Измайлово";"11-я Парковая улица, дом 50";"37.8049739152624";"55.8071731923667";"пластик";"1711636";
437;"Искусственная дорожная неровность по адресу улица Вучетича, дом 6";"Северный административный округ";"Тимирязевский район";"улица Вучетича, дом 6";"37.5596595870581";"55.8082416081169";"пластик";"1711641";
438;"Искусственная дорожная неровность по адресу улица Годовикова, дом 12, корпус 1";"Северо-Восточный административный округ";"Останкинский район";"улица Годовикова, дом 12, корпус 1";"37.631034171539";"55.8074820966897";"пластик";"1711639";
439;"Искусственная дорожная неровность по адресу улица Исаковского, дом 29";"Северо-Западный административный округ";"район Строгино";"улица Исаковского, дом 29";"37.417719098583";"55.8070148601176";"пластик";"1711635";
